%time,field.header.seq,field.header.stamp,field.header.frame_id,field.pose.position.x,field.pose.position.y,field.pose.position.z,field.pose.orientation.x,field.pose.orientation.y,field.pose.orientation.z,field.pose.orientation.w
59389196336786,15735,59389196336786,map,155.005371094,19.6622943878,0.0750005319715,-7.21676830316e-05,7.12995359068e-05,0.707672810766,0.706540290862
59389246336787,15736,59389246336787,map,155.004730225,19.9472465515,0.0750377997756,-9.38278941763e-05,9.22073299876e-05,0.707540140915,0.70667314346
59389296336788,15737,59389296336788,map,155.00453186,20.2295818329,0.0750967785716,-0.000127026954734,0.000126443795773,0.707682728568,0.706530341573
59389346336788,15738,59389346336788,map,155.003875732,20.5112171173,0.0751188993454,-0.000139988463195,0.000138685738059,0.707545214652,0.706668048232
59389396336789,15739,59389396336789,map,155.003128052,21.068441391,0.0751743689179,-0.000174085811561,0.000168227345586,0.7075384331,0.706674824144
59389496336791,15740,59389496336791,map,155.002990723,21.3446350098,0.075195081532,-0.000185677326401,0.000180490477257,0.707667851979,0.706545217394
59389546336791,15741,59389546336791,map,155.002410889,21.6211929321,0.0751662775874,-0.000169360247905,0.000163512100453,0.70752878895,0.706684482204
59389646336793,15742,59389596336792,map,155.002243042,21.8967914581,0.0751428976655,-0.000155262359857,0.000150889133898,0.707638504681,0.706574624381
59389646336793,15743,59389646336793,map,155.001739502,22.1754837036,0.0750336423516,-9.30762276348e-05,8.80678514667e-05,0.707544658191,0.706668621241
59389696336794,15744,59389696336794,map,155.001449585,22.4577407837,0.0748805254698,-5.10666724529e-06,9.59714537676e-07,0.707578161999,0.706635085907
59389746336794,15745,59389746336794,map,155.001068115,22.7464103699,0.0746586993337,0.000120621215467,-0.000126869032385,0.707549121955,0.706664141849
59389796336795,15746,59389796336795,map,155.000732422,23.038690567,0.0744844824076,0.000219899469557,-0.000226777160351,0.707547073816,0.706666143628
59389846336796,15747,59389846336796,map,155.000061035,23.6344470978,0.0742481201887,0.000355055872476,-0.000361781818739,0.707530691291,0.706682434995
59389946336797,15748,59389946336797,map,154.999694824,23.9363174438,0.0741929635406,0.000386310791518,-0.000393409898718,0.707499573495,0.706713555478
59389996336798,15749,59389996336798,map,154.999435425,24.2386207581,0.0742122977972,0.000376037633604,-0.000381597600468,0.707541549371,0.706671542438
59390046336799,15750,59390046336799,map,154.998977661,24.5421409607,0.0742481946945,0.00035480703012,-0.00036160849705,0.707456442232,0.706756765581
59390096336800,15751,59390096336800,map,154.998825073,24.8442230225,0.0743490234017,0.000298147994817,-0.000303037825953,0.707557019539,0.706656128097
59390146336800,15752,59390146336800,map,154.998306274,25.1460475922,0.0744457617402,0.000241790643058,-0.000248717633409,0.707436727573,0.706776595649
59390196336801,15753,59390196336801,map,154.997665405,25.7446632385,0.0746763944626,0.000110602743128,-0.000116149818378,0.70742584463,0.706787555511
59390346336803,15754,59390296336803,map,154.997589111,26.0412368774,0.0747935846448,4.47388801034e-05,-4.8070571957e-05,0.707548237788,0.706665045754
59390346336803,15755,59390346336803,map,154.997055054,26.3370761871,0.0748714059591,-4.66063623155e-08,-4.09452231008e-06,0.707417195587,0.706796230445
59390396336804,15756,59390396336804,map,154.996963501,26.6303405762,0.0749638751149,-5.22200954592e-05,4.95207370977e-05,0.707544238505,0.706669049399
59390446336805,15757,59390446336805,map,154.996444702,26.9228019714,0.075016438961,-8.27123207991e-05,7.88770597518e-05,0.707408579562,0.706804844705
59390496336806,15758,59390496336806,map,154.996398926,27.2125873566,0.0750859826803,-0.000121911609435,0.000119504105008,0.707539336977,0.706673940008
59390546336806,15759,59390546336806,map,154.995880127,27.5015335083,0.0751177966595,-0.000140164844046,0.000137413153384,0.707400476511,0.706812936571
59390696336809,15760,59390696336809,map,154.995285034,28.3556270599,0.0752255991101,-0.000201051048927,0.000199680414367,0.707531414461,0.706681835946
59390746336809,15761,59390746336809,map,154.994766235,28.6373252869,0.0752306357026,-0.000204023342129,0.000202355914412,0.707386672493,0.706826720637
59390796336810,15762,59390796336810,map,154.994735718,28.9161987305,0.0752616450191,-0.000221399965943,0.000220382728417,0.707529149889,0.706684090999
59390846336811,15763,59390846336811,map,154.994232178,29.1943035126,0.0752573013306,-0.000219285562585,0.000217608001771,0.707383514942,0.706829871573
59390896336812,15764,59390896336812,map,154.99420166,29.4702205658,0.0752661898732,-0.000224222396985,0.000223207980924,0.707519362463,0.706693888216
59390946336812,15765,59390946336812,map,154.993713379,29.7464199066,0.0752273574471,-0.000202336096882,0.000200671399455,0.707384225858,0.706829170167
59390996336813,15766,59390996336813,map,154.993225098,30.2997570038,0.0750789269805,-0.000117338977773,0.00011573242204,0.707410221525,0.706803191362
59391146336815,15767,59391096336815,map,154.993026733,30.5814476013,0.0749193951488,-2.59915544297e-05,2.48369849657e-05,0.707450134857,0.706763259797
59391196336816,15768,59391146336815,map,154.992736816,30.8695335388,0.0746914669871,0.000103948078967,-0.000106112807714,0.707426646181,0.706786755823
59391196336816,15769,59391196336816,map,154.992477417,31.1612281799,0.0745112970471,0.000206815107926,-0.000209259701326,0.707432646441,0.706780704454
59391246336817,15770,59391246336817,map,154.9921875,31.4575500488,0.0743470340967,0.000300421558289,-0.000303544186974,0.707419247959,0.706794047248
59391296336818,15771,59391296336818,map,154.991928101,31.7558193207,0.0742651000619,0.000347273323087,-0.000350342727268,0.707431225891,0.706782015402
59391346336818,15772,59391346336818,map,154.991409302,32.3587722778,0.0742236301303,0.000371045701013,-0.000373690440737,0.707456294774,0.706756898562
59391446336820,15773,59391446336820,map,154.990966797,32.6615982056,0.0742589905858,0.000349968559419,-0.000354222557994,0.707373294601,0.70683999189
59391496336821,15774,59391496336821,map,154.990875244,32.9629364014,0.0743596255779,0.000293548814563,-0.000295496589995,0.707481129473,0.706732111871
59391546336821,15775,59391546336821,map,154.990402222,33.2640075684,0.0744556412101,0.00023766395208,-0.000241631452892,0.707365435847,0.706847950622
59391596336822,15776,59391596336822,map,154.990325928,33.5628623962,0.0745850354433,0.000164743083664,-0.000166447803019,0.707487570945,0.706725747453
59391646336823,15777,59391646336823,map,154.989837646,33.8611335754,0.0746832638979,0.000107989282032,-0.000110922510845,0.70736448018,0.70684897129
59391746336824,15778,59391746336824,map,154.98928833,34.4520874023,0.0748752951622,-1.34028357159e-06,-9.19636611361e-07,0.707363782969,0.70684968596
59391796336825,15779,59391796336825,map,154.989242554,34.7446289062,0.0749667733908,-5.27320243576e-05,5.22976960348e-05,0.707495117087,0.706718227996
59391846336826,15780,59391846336826,map,154.988754272,35.0363845825,0.0750182718039,-8.2716116757e-05,8.11502689136e-05,0.707362790018,0.706850670135
59391946336827,15781,59391896336826,map,154.988723755,35.325466156,0.0750872045755,-0.000121511740994,0.000121000972053,0.707497790648,0.706715534584
59391946336827,15782,59391946336827,map,154.988235474,35.6137161255,0.0751181766391,-0.000139615098728,0.000138385069393,0.707361463403,0.706851979873
59391996336828,15783,59391996336828,map,154.988189697,35.8992271423,0.0751697868109,-0.000168638934967,0.000168451489737,0.707499851224,0.706713452329
59392046336829,15784,59392046336829,map,154.987686157,36.1838951111,0.0751853957772,-0.000177836142115,0.000176955711385,0.707360184131,0.706853242878
59392196336831,15785,59392096336829,map,154.987182617,36.746799469,0.0752295255661,-0.000203048438165,0.000202151064849,0.707358247841,0.706855167002
59392196336831,15786,59392196336831,map,154.987182617,37.02501297,0.0752605423331,-0.000220374149248,0.000220313293146,0.707502660075,0.706710611838
59392246336832,15787,59392246336832,map,154.986679077,37.3024635315,0.0752561539412,-0.000218122896325,0.000217591041171,0.707358619748,0.706854785755
59392296336832,15788,59392296336832,map,154.986679077,37.5777282715,0.0752650052309,-0.000222859710872,0.000223054088658,0.707496965887,0.706716310722
59392346336833,15789,59392346336833,map,154.986190796,37.8532905579,0.0752259790897,-0.000200795867642,0.000200273364445,0.707363895761,0.706849516195
59392396336834,15790,59392396336834,map,154.98614502,38.127822876,0.0751939788461,-0.000182140423586,0.000182429999588,0.707482297027,0.706731018802
59392446336835,15791,59392446336835,map,154.985733032,38.4053955078,0.075076751411,-0.000115863515367,0.000115016572876,0.707393656938,0.706819770147
59392496336835,15792,59392496336835,map,154.985549927,38.686504364,0.0749166831374,-2.39279327824e-05,2.3529234869e-05,0.707435500455,0.706777908235
59392596336837,15793,59392596336837,map,154.984985352,39.2652282715,0.0745069086552,0.000209718047954,-0.000211414011922,0.707420975624,0.706792384346
59392646336838,15794,59392646336838,map,154.984710693,39.5610694885,0.0743420794606,0.000303388209429,-0.000306140680476,0.707408894079,0.706804407748
59392696336838,15795,59392696336838,map,154.984466553,39.85887146,0.0742597952485,0.000350408334066,-0.00035310808436,0.707421436621,0.706791810605
59392796336840,15796,59392746336839,map,154.984161377,40.1597175598,0.0742008984089,0.000383750709391,-0.000387200821682,0.707396619015,0.706816614276
59392796336840,15797,59392796336840,map,154.983963013,40.460975647,0.0742177590728,0.000374560989596,-0.000376834153189,0.707448387789,0.70676480976
59392846336841,15798,59392846336841,map,154.983551025,40.7634239197,0.0742530450225,0.000353526164637,-0.000357408256697,0.707366092671,0.706847195806
59392846336841,15799,59392896336841,map,154.982971191,41.3650856018,0.0744503736496,0.000240801504589,-0.000244394311375,0.707359505155,0.706853883595
59392996336843,15800,59392996336843,map,154.982910156,41.6635627747,0.0745808407664,0.00016764857022,-0.000168599530131,0.707482912161,0.706730410035
59393046336844,15801,59393046336844,map,154.982421875,41.9614601135,0.0746797919273,0.000110200655798,-0.000112757090354,0.707360338482,0.706853115353
59393096336844,15802,59393096336844,map,154.98236084,42.2569122314,0.0747964456677,4.44498691989e-05,-4.51547194268e-05,0.707488671343,0.706724681829
59393146336845,15803,59393146336845,map,154.981872559,42.551651001,0.074873238802,1.74580309069e-07,-1.6804235377e-06,0.707361476957,0.706851993641
59393196336846,15804,59393196336846,map,154.981826782,42.8438072205,0.0749652460217,-5.18041907678e-05,5.13710684041e-05,0.707493799681,0.706719546985
59393246336847,15805,59393246336847,map,154.981292725,43.4238853455,0.075086325407,-0.000120963433768,0.000120453463844,0.707497226112,0.706716099931
59393346336848,15806,59393346336848,map,154.980804443,43.7117576599,0.075117379427,-0.000139235534452,0.000138005999924,0.707360898738,0.706852545093
59393446336850,15807,59393396336849,map,154.980773926,43.9968833923,0.0751692205667,-0.000168259310836,0.000168072456323,0.707499474896,0.706713829257
59393446336850,15808,59393446336850,map,154.980285645,44.2811698914,0.0751848965883,-0.000177625163576,0.00017674521424,0.707359525321,0.706853902266
59393496336850,15809,59393496336850,map,154.980270386,44.5626716614,0.0752244517207,-0.000199887523623,0.000199664494237,0.707501348757,0.706711936849
59393546336851,15810,59393546336851,map,154.979766846,44.8433303833,0.0752290710807,-0.000202921811359,0.00020202478341,0.707357730198,0.706855685085
59393596336852,15811,59393596336852,map,154.979766846,45.1211662292,0.0752602368593,-0.00022013396839,0.000220216373012,0.70750275421,0.706710517703
59393646336853,15812,59393646336853,map,154.979232788,45.673324585,0.0752599686384,-0.00021997049454,0.00022038001882,0.707490520508,0.706722764906
59393746336854,15813,59393746336854,map,154.978805542,45.9504394531,0.0751776844263,-0.00017331186296,0.000172797850962,0.70738738624,0.706826022365
59393846336856,15814,59393846336856,map,154.978317261,46.5153808594,0.0748400464654,1.95057701761e-05,-2.06185058945e-05,0.707408913075,0.706804519578
59393896336856,15815,59393896336856,map,154.978088379,46.8039207458,0.0746647268534,0.00011973572043,-0.000120754669233,0.707432855349,0.706780536132
59393946336857,15816,59393946336857,map,154.977767944,47.0967903137,0.0744963809848,0.000215322474704,-0.000217779547651,0.707399468064,0.706813906761
59394096336859,15817,59394096336859,map,154.977081299,47.9837150574,0.0743816718459,0.000281166187514,-0.000282759501946,0.707470029969,0.70674323321
59394146336860,15818,59394146336860,map,154.976623535,48.2801361084,0.0744240581989,0.000256022090931,-0.000259603709107,0.707359923284,0.706853454396
59394196336861,15819,59394196336861,map,154.9765625,48.5748100281,0.0745190829039,0.000202712967535,-0.00020400483704,0.707479844339,0.706733462589
59394246336861,15820,59394246336861,map,154.976074219,48.8693313599,0.07459628582,0.00015759336669,-0.000160869381588,0.707359058499,0.706854377962
59394296336862,15821,59394296336862,map,154.976028442,49.16173172,0.0747023746371,9.81539682001e-05,-9.91781329227e-05,0.70748551326,0.706727832377
59394346336863,15822,59394346336863,map,154.975540161,49.4537353516,0.0747750476003,5.58115921362e-05,-5.84072879026e-05,0.707358697909,0.706854770067
59394446336864,15823,59394446336864,map,154.975006104,50.0324707031,0.0749241262674,-2.91896837596e-05,2.72864180362e-05,0.707358699797,0.706854771665
59394496336865,15824,59394496336865,map,154.974960327,50.3190498352,0.0749996528029,-7.15818777214e-05,7.11271165716e-05,0.707493797967,0.706719545262
59394546336866,15825,59394546336866,map,154.974472046,50.6049728394,0.075037650764,-9.36159433058e-05,9.24198252984e-05,0.707358506031,0.706854954457
59394596336867,15826,59394596336867,map,154.974441528,50.8882789612,0.0750971585512,-0.000126974070106,0.000126918533112,0.707497789609,0.706715533626
59394646336867,15827,59394646336867,map,154.973937988,51.170879364,0.0751198530197,-0.000140499779398,0.000139270573534,0.707357745359,0.706855700228
59394696336868,15828,59394696336868,map,154.973922729,51.4507713318,0.0751663595438,-0.000166699177225,0.000166513732863,0.70750018105,0.706713123056
59394796336870,15829,59394796336870,map,154.973434448,52.0063285828,0.0752146095037,-0.000194235971792,0.000194020707591,0.707501726749,0.706711561584
59394896336871,15831,59394896336871,map,154.972900391,52.5558242798,0.0752244144678,-0.000199737310076,0.000199814870352,0.707488926828,0.706724372436
59394946336872,15832,59394946336872,map,154.972488403,52.8317222595,0.0751459077001,-0.000155431082744,0.000154179183562,0.707385366977,0.706828051691
59394996336873,15833,59394996336873,map,154.972305298,53.1103591919,0.0750157535076,-8.03711284803e-05,8.03769650615e-05,0.707439213733,0.706774183139
59395046336873,15834,59395046336873,map,154.972015381,53.3961410522,0.0747760757804,5.61054957897e-05,-5.71857110699e-05,0.707416675647,0.706796746313
59395096336874,15835,59395096336874,map,154.971481323,53.983757019,0.0743320807815,0.00030922778271,-0.000311596340877,0.707411668129,0.706801626399
59395196336876,15836,59395196336876,map,154.971221924,54.2836112976,0.0741994827986,0.000384936501586,-0.000387616410577,0.707411489321,0.706801730582
59395246336876,15837,59395246336876,map,154.970916748,54.5875167847,0.074098393321,0.000442513351105,-0.000445522006523,0.707409949302,0.706803204097
59395296336877,15838,59395296336877,map,154.970626831,54.8929672241,0.0740783289075,0.000453753427553,-0.00045712573448,0.707412388911,0.706800747849
59395346336878,15839,59395346336878,map,154.970321655,55.2010498047,0.0740746706724,0.000455587144318,-0.000459338246284,0.707409375751,0.706803760989
59395396336879,15840,59395396336879,map,154.970062256,55.5095252991,0.0741303637624,0.0004239469961,-0.00042733656035,0.707419513301,0.706793654367
59395496336880,15841,59395496336880,map,154.969528198,56.1288986206,0.0742819979787,0.000337667372156,-0.000339970814236,0.707454053163,0.706759176144
59395546336881,15842,59395546336881,map,154.969009399,56.7456855774,0.0745097696781,0.000207983664793,-0.000209270841816,0.70747833708,0.706734968366
59395646336882,15843,59395646336882,map,154.968536377,57.0520973206,0.0746235251427,0.000142139987893,-0.000145049675354,0.707361132635,0.706852309039
59395696336883,15844,59395696336883,map,154.968475342,57.3558616638,0.0747567340732,6.69907435752e-05,-6.80483401403e-05,0.707485187574,0.706728165736
59395746336884,15845,59395746336884,map,154.967926025,57.9586181641,0.0749578848481,-4.76712587613e-05,4.72432190682e-05,0.707489706372,0.706723645333
59395846336885,15846,59395846336885,map,154.967437744,58.2575912476,0.0750228464603,-8.50996992747e-05,8.39087336656e-05,0.70736227202,0.706851187903
59395896336886,15847,59395896336886,map,154.967391968,58.5537643433,0.0751009359956,-0.000129250715964,0.000129109399823,0.707493460375,0.706719866816
59395946336887,15848,59395946336887,map,154.966903687,58.8488960266,0.0751398429275,-0.00015186468876,0.000151002246005,0.707361649064,0.706851788969
59395996336888,15849,59395996336888,map,154.96685791,59.1411857605,0.0751955360174,-0.000183279088152,0.000183229904334,0.707496224507,0.706717075741
59396096336889,15850,59396046336888,map,154.966369629,59.4324493408,0.075214959681,-0.000194597175799,0.00019408085631,0.707360885557,0.706852532038
59396096336889,15851,59396096336889,map,154.965835571,60.0082588196,0.0752612650394,-0.000220970660997,0.000220812534039,0.707359795289,0.70685360749
59396196336891,15852,59396196336891,map,154.965820312,60.2927780151,0.0752913653851,-0.00023805335757,0.00023803745299,0.707500584026,0.706712678726
59396296336892,15853,59396296336892,map,154.965301514,60.8570022583,0.0753120779991,-0.000249660903951,0.00025011671936,0.707503167718,0.706710083967
59396346336893,15854,59396346336893,map,154.964813232,61.1367454529,0.0753033012152,-0.000244918031782,0.000244743973861,0.707358046121,0.706855342134
59396396336894,15855,59396396336894,map,154.964309692,61.6896209717,0.0753084570169,-0.000247869755474,0.000247692828823,0.707359174574,0.706854210821
59396546336896,15856,59396546336896,map,154.963851929,62.2395706177,0.0752153396606,-0.000194773079598,0.000194242114178,0.707387239489,0.706826158077
59396596336896,15857,59396596336896,map,154.963684082,62.5181617737,0.0750766769052,-0.000115231448634,0.000115311870363,0.707442973389,0.706770410266
59396646336897,15858,59396646336897,map,154.963378906,62.8038024902,0.0748290643096,2.5788705083e-05,-2.68953447925e-05,0.707418700934,0.706794722801
59396746336899,15859,59396746336899,map,154.962844849,63.3910446167,0.0743699222803,0.000287639842619,-0.000290025922972,0.707413042003,0.706800269633
59396796336899,15860,59396796336899,map,154.962585449,63.6906814575,0.0742308795452,0.000367016855259,-0.000369711229362,0.707412440084,0.706800798122
59396896336901,15862,59396896336901,map,154.962005615,64.2995376587,0.0740995034575,0.000441840763574,-0.000444845883301,0.70741319674,0.706799954703
59396946336902,15863,59396946336902,map,154.961700439,64.6073532104,0.0740918368101,0.000445951162932,-0.000449333611662,0.707409711596,0.706803437433
59396996336902,15864,59396996336902,map,154.961425781,64.9155502319,0.0741444379091,0.000416083165003,-0.00041910013535,0.707422153459,0.706791021467
59397046336903,15865,59397046336903,map,154.960906982,65.5342254639,0.0742938965559,0.000330922647237,-0.000333228583039,0.707458432509,0.706754798867
59397146336905,15866,59397146336905,map,154.960479736,65.843208313,0.0743880793452,0.000276242077223,-0.000280182026236,0.707364621566,0.706848737245
59397196336905,15867,59397196336905,map,154.960403442,66.1499481201,0.0745234638453,0.000199952351087,-0.000201623753392,0.707479468594,0.706733840201
59397246336906,15868,59397246336906,map,154.959915161,66.4558029175,0.0746363848448,0.000134992199188,-0.000137530247616,0.707361887124,0.706851556911
59397296336907,15869,59397296336907,map,154.959854126,66.7590103149,0.0747678726912,6.08115041841e-05,-6.1499030973e-05,0.707486646825,0.706726706078
59397346336908,15870,59397346336908,map,154.959365845,67.0612258911,0.0748606473207,7.1960611655e-06,-9.07330325781e-06,0.70736307699,0.706850392358
59397446336909,15871,59397446336909,map,154.95880127,67.6591644287,0.075028039515,-8.81776307463e-05,8.69842429937e-05,0.707363071692,0.706850386902
59397496336910,15872,59397496336910,map,154.958755493,67.954826355,0.075104445219,-0.0001315054317,0.000130984877873,0.70749435403,0.70671897142
59397596336911,15873,59397596336911,map,154.958221436,68.5412750244,0.075196839869,-0.000184114615457,0.000183911585017,0.707496741907,0.706716557375
59397646336912,15874,59397646336912,map,154.957733154,68.8320770264,0.0752153396606,-0.000195164814776,0.0001942717631,0.707360509012,0.706852908645
59397696336913,15875,59397696336913,map,154.957199097,69.4069519043,0.0752606913447,-0.000220633274963,0.000220475603731,0.707359418902,0.706853984358
59397796336914,15876,59397796336914,map,154.957183838,69.6910171509,0.0752904862165,-0.000237398051465,0.000237512743391,0.707500584202,0.706712678946
59397846336915,15877,59397846336915,map,154.956680298,69.9741210938,0.0752873197198,-0.000235823899801,0.000235714982376,0.707358472747,0.706854921365
59397896336916,15878,59397896336916,map,154.956680298,70.2543411255,0.0753108561039,-0.000249060189047,0.000249199987011,0.707502650469,0.706710602332
59397946336917,15879,59397946336917,map,154.956161499,70.5336456299,0.0753019675612,-0.000244038974829,0.000244021498466,0.70735748163,0.70685590758
59397996336917,15880,59397996336917,map,154.956161499,70.8100585938,0.0753214210272,-0.000254974425322,0.000255339856377,0.707504671512,0.706708574717
59398046336918,15881,59398046336918,map,154.9556427,71.3592071533,0.0753033831716,-0.000244651538705,0.000245010766135,0.707491735764,0.706721532105
59398196336920,15883,59398196336920,map,154.955047607,71.9129638672,0.0750749185681,-0.000114100600105,0.000114166784359,0.707442267734,0.706771116961
59398246336921,15884,59398246336921,map,154.954742432,72.1982421875,0.074826695025,2.7368392651e-05,-2.80971841443e-05,0.707418606772,0.706794816941
59398296336922,15885,59398296336922,map,154.954483032,72.4885559082,0.0745930820704,0.000160383687082,-0.000162124775794,0.707418165202,0.706795223198
59398346336923,15886,59398346336923,map,154.953948975,73.0841217041,0.0742273703218,0.000368809933579,-0.000371880120119,0.707411638958,0.70680159787
59398446336924,15887,59398446336924,map,154.953674316,73.3874816895,0.0741205587983,0.000429675180385,-0.000433072209513,0.707409204114,0.706803965582
59398496336925,15888,59398496336925,map,154.953399658,73.6923828125,0.074095800519,0.000443759693459,-0.000447141826644,0.70741145414,0.706801696158
59398596336926,15889,59398546336926,map,154.953094482,73.9999313354,0.0740883201361,0.000448058172338,-0.000451441311266,0.70740778086,0.706805367144
59398596336926,15890,59398596336926,map,154.952835083,74.3078613281,0.074140816927,0.000418063809368,-0.000421081246434,0.70742026998,0.706792904276
59398696336928,15891,59398696336928,map,154.952316284,74.9260406494,0.0742904618382,0.000333050187258,-0.000334978344798,0.707457631745,0.706755598601
59398796336929,15892,59398746336929,map,154.951873779,75.2348098755,0.0743847638369,0.000278181392615,-0.000282120246418,0.707364244304,0.706849113251
59398796336929,15893,59398796336929,map,154.951797485,75.5413208008,0.0745204910636,0.000201911642871,-0.000203204573427,0.707479468141,0.706733839645
59398846336930,15894,59398846336930,map,154.951309204,75.8469543457,0.0746336355805,0.000136552185314,-0.000139089118691,0.707361886818,0.706851556612
59398896336931,15895,59398896336931,map,154.951248169,76.1499404907,0.074765779078,6.20344120658e-05,-6.27206407148e-05,0.707486646717,0.706726705972
59398946336932,15896,59398946336932,map,154.950698853,76.7511901855,0.0749636813998,-5.08763260688e-05,5.04444721166e-05,0.707492105848,0.706721242803
59399046336933,15897,59399046336933,map,154.950195312,77.0494232178,0.0750270858407,-8.75874647507e-05,8.63942963117e-05,0.70736391887,0.706849539255
59399096336934,15898,59399096336934,map,154.950164795,77.3448562622,0.0751039460301,-0.000130937979036,0.00013079390206,0.707495906802,0.706717417082
59399196336935,15899,59399196336935,map,154.949615479,77.930847168,0.0751964151859,-0.000183946433434,0.000183742585312,0.707498671101,0.706714626134
59399346336937,15900,59399346336937,map,154.948577881,78.7958450317,0.0752604305744,-0.000220611149688,0.000220076093814,0.707360877936,0.706852524409
59399446336939,15901,59399446336939,map,154.948059082,79.3625640869,0.0752872079611,-0.000235831011765,0.000235286261367,0.70735903763,0.70685435622
59399496336940,15902,59399496336940,map,154.948059082,79.6425628662,0.0753107443452,-0.000248943677646,0.000248979258924,0.707502979911,0.706710272639
59399546336940,15903,59399546336940,map,154.947555542,79.9216537476,0.0753017440438,-0.000243948130994,0.000243775151888,0.707357481715,0.706855907611
59399596336941,15904,59399596336941,map,154.947052002,80.4732437134,0.0753068178892,-0.000246969610835,0.000246822805679,0.707358233644,0.706855153041
59399696336943,15905,59399696336943,map,154.947021484,80.7465744019,0.0753030776978,-0.000244315312807,0.000244925675211,0.707491735794,0.706721532221
59399746336943,15906,59399746336943,map,154.946594238,81.0219268799,0.0752133131027,-0.000193864912937,0.000192958500342,0.707386675123,0.706826723492
59399796336944,15907,59399796336944,map,154.946426392,81.2999191284,0.0750741958618,-0.000113869685773,0.000113976241265,0.707442267764,0.706771116999
59399846336945,15908,59399846336945,map,154.946136475,81.5850143433,0.0748257413507,2.76861382641e-05,-2.87911306534e-05,0.707418371456,0.706795052424
59399896336946,15909,59399896336946,map,154.945861816,81.8751525879,0.0745919421315,0.000161016076483,-0.000162756791833,0.707417741536,0.706795646947
59400096336949,15910,59400096336949,map,154.944793701,83.0783538818,0.0740941241384,0.000444729495699,-0.00044811079295,0.707411453526,0.70680169555
59400146336949,15911,59400146336949,map,154.944488525,83.3857498169,0.0740865319967,0.000449027969543,-0.000452410282605,0.70740778024,0.70680536653
59400196336950,15912,59400196336950,map,154.944213867,83.6935424805,0.0741391703486,0.000419033644337,-0.000422050180026,0.707420269402,0.706792903703
59400246336951,15913,59400246336951,map,154.943695068,84.3114547729,0.0742887482047,0.000333977671368,-0.000335905309913,0.707457207808,0.70675602208
59400346336952,15914,59400346336952,map,154.943252563,84.6200942993,0.0743831247091,0.000279297210456,-0.00028285874193,0.707364244008,0.706849112811
59400396336953,15915,59400396336953,map,154.94317627,84.9264831543,0.0745188891888,0.000202755258425,-0.000204046819219,0.707480267809,0.706733038647
59400446336954,15916,59400446336954,map,154.942687988,85.2319869995,0.0746325701475,0.00013703856777,-0.00013995157456,0.707362027832,0.706851415231
59400496336955,15917,59400496336955,map,154.942626953,85.5348510742,0.0747647061944,6.24365730879e-05,-6.34987932353e-05,0.707486646648,0.706726705937
59400596336956,15918,59400596336956,map,154.942092896,86.1358566284,0.0749629586935,-5.06849366601e-05,4.98770111931e-05,0.707491117779,0.706722232003
59400646336957,15919,59400646336957,map,154.941589355,86.4339752197,0.0750264376402,-8.72500698147e-05,8.6057341596e-05,0.707363165929,0.706850292826
59400746336958,15920,59400746336958,map,154.94102478,87.0235748291,0.0751411020756,-0.000152581748681,0.000151718181494,0.707363060754,0.70685037595
59400796336959,15921,59400796336959,map,154.940994263,87.3150253296,0.0751961916685,-0.000183705035208,0.000183562563915,0.707498153572,0.706715144347
59400896336961,15922,59400896336961,map,154.940460205,87.8930511475,0.0752548202872,-0.000217149907721,0.000217046886026,0.707500167321,0.706713109385
59400996336962,15923,59400996336962,map,154.939956665,88.4633789062,0.0752901807427,-0.000237362875983,0.000237126269593,0.707501525376,0.706711736863
59401046336963,15924,59401046336963,map,154.939208984,88.7461471558,0.0752871707082,-0.00022025751077,0.000250872776782,0.707402515919,0.706810843876
59401096336964,15925,59401096336964,map,154.938827515,89.0260238647,0.075310818851,-0.000226164433208,0.00027179187806,0.70762322638,0.706589870057
59401196336965,15926,59401196336965,map,154.937408447,89.5810699463,0.0753214210272,-0.000232410205521,0.000277610938752,0.707796089852,0.706416707127
59401246336966,15927,59401246336966,map,154.93637085,89.8563461304,0.0753069296479,-0.000226301979145,0.000267105238769,0.707731044914,0.706481879108
59401296336967,15928,59401296336967,map,154.935791016,90.1295471191,0.0753031522036,-0.000225934658189,0.000263350377162,0.707939906127,0.70627258825
59401346336967,15929,59401346336967,map,154.934753418,90.4047927856,0.075213432312,-0.000176885465248,0.000209975883702,0.707904655957,0.706307951743
59401396336968,15930,59401396336968,map,154.933944702,90.6826858521,0.0750742331147,-9.83093858859e-05,0.000129239679742,0.70802528494,0.706187064111
59401496336970,15931,59401496336970,map,154.927383423,91.2575302124,0.0745957195759,0.000343742491544,2.33251187761e-05,0.709022154408,0.705186121428
59401596336971,15932,59401546336970,map,154.92300415,91.5533981323,0.0743696168065,0.000481415865568,-9.74480858319e-05,0.709712826004,0.704490924958
59401596336971,15933,59401596336971,map,154.918182373,91.8523406982,0.0742300376296,0.000553300361372,-0.000184574993508,0.710408099823,0.703789735288
59401646336972,15934,59401646336972,map,154.912918091,92.1553573608,0.0741226524115,0.000601623304656,-0.000258705224011,0.711065272037,0.703125700016
59401696336972,15935,59401696336972,map,154.907287598,92.4599227905,0.0740974023938,0.000602218130628,-0.000286651505277,0.711683250842,0.702500181947
59401796336974,15936,59401796336974,map,154.892379761,93.0745315552,0.0741463080049,0.00071810874951,-0.000112917966606,0.713251929243,0.700907381186
59401846336975,15937,59401846336975,map,154.881591797,93.3833465576,0.0742013528943,0.000756000151467,-1.03370331106e-05,0.714519703625,0.699614909424
59401896336975,15938,59401896336975,map,154.869949341,93.6912994385,0.0743028596044,0.000702130541661,5.35119544919e-05,0.715953225826,0.698147894488
59401946336976,15939,59401946336976,map,154.857208252,93.999206543,0.0743994489312,0.000623779247931,8.6934074337e-05,0.717174045788,0.696893816438
59401996336977,15940,59401996336977,map,154.844161987,94.3048248291,0.0745361298323,0.000517255612717,0.000137323890465,0.718519092471,0.695507028968
59402046336978,15941,59402046336978,map,154.813369751,94.9113845825,0.074783667922,0.000478960009126,0.00038738922338,0.721129798071,0.692799707607
59402196336980,15942,59402146336979,map,154.794281006,95.212097168,0.0748777389526,0.000477044990648,0.000496706140959,0.722733989652,0.691125969641
59402196336980,15943,59402196336980,map,154.77444458,95.510017395,0.0749818757176,0.000408100800187,0.000549311206131,0.724608261947,0.689160647766
59402246336981,15944,59402246336981,map,154.753189087,95.8068695068,0.0750438645482,0.000338847098755,0.00055154575524,0.726146717574,0.687539471985
59402296336981,15945,59402296336981,map,154.731643677,96.1008987427,0.0751190558076,0.000256281314229,0.00055508670949,0.727822002676,0.685765819081
59402396336983,15946,59402396336983,map,154.686004639,96.6839523315,0.0752084329724,0.000128639875308,0.000528469697752,0.730525293888,0.682885421693
59402446336984,15947,59402446336984,map,154.659515381,96.9726638794,0.0752305239439,0.000246290540091,0.000680911068803,0.732024592698,0.681277822468
59402496336984,15948,59402496336984,map,154.631622314,97.2583084106,0.0752722918987,0.000268414285253,0.000756762971857,0.734019196672,0.679128245754
59402546336985,15949,59402546336985,map,154.602157593,97.5428619385,0.0753710567951,0.000160513161052,0.000607729289089,0.735744696187,0.677258700153
59402596336986,15950,59402596336986,map,154.572174072,97.8244018555,0.0753621309996,0.000186318297886,0.000689874403481,0.737641239656,0.675192484346
59402646336987,15951,59402646336987,map,154.50970459,98.3825302124,0.0753442719579,0.000100000437638,0.000637961961723,0.740782747737,0.671744373746
59402796336989,15953,59402796336989,map,154.44229126,98.9331512451,0.0753275305033,0.000189232590936,0.000740177053459,0.743851487782,0.668344507311
59402846336990,15954,59402846336990,map,154.404815674,99.2070388794,0.0752832740545,0.000254744227282,0.000766652465322,0.745638980715,0.6663496513
59402896336990,15955,59402896336990,map,154.366592407,99.4796829224,0.0752462372184,0.000261013816703,0.000735018285578,0.747665026091,0.664075598392
59402946336991,15956,59402946336991,map,154.285186768,100.033805847,0.0749620050192,0.000367824322646,0.000517822252506,0.751185433296,0.660090934166
59403046336993,15957,59403046336993,map,154.241867065,100.318656921,0.0747304931283,0.000475641777953,0.000360217312634,0.752785793412,0.658265290931
59403096336993,15958,59403096336993,map,154.197219849,100.606941223,0.074546508491,0.000556714998127,0.000229632466461,0.754306013316,0.656522715229
59403146336994,15959,59403146336994,map,154.151031494,100.899627686,0.074474029243,0.000576844654028,9.75113939874e-05,0.755689241163,0.654930094386
59403196336995,15960,59403196336995,map,154.10093689,101.193466187,0.0743782818317,0.000797424318377,0.000249014411737,0.757507206475,0.65282626651
59403246336996,15961,59403246336996,map,154.047958374,101.489715576,0.0743074044585,0.000897047891504,0.000291655251087,0.759528119545,0.650473785685
59403296336996,15962,59403296336996,map,153.993545532,101.785987854,0.0743133500218,0.000881467918278,0.000294665812506,0.761636326092,0.648004045483
59403346336997,15963,59403346336997,map,153.880844116,102.378433228,0.0744300857186,0.000728713627645,0.000281613377765,0.765398665967,0.643555958566
59403496336999,15964,59403446336999,map,153.822875977,102.673370361,0.0745158717036,0.000632542326189,0.000282445159175,0.766932481574,0.641727425643
59403496336999,15965,59403496336999,map,153.764755249,102.966026306,0.0746355801821,0.000520507437299,0.000305602854436,0.768537621486,0.639804313864
59403546337000,15966,59403546337000,map,153.702835083,103.257225037,0.0747303366661,0.000588145764042,0.000510693511864,0.770238988232,0.637754885739
59403596337001,15967,59403596337001,map,153.639434814,103.545585632,0.0748421102762,0.000564719861085,0.000630134458687,0.772379676828,0.635160545724
59403696337002,15968,59403696337002,map,153.508789062,104.11743927,0.0750001147389,0.000411357065594,0.000656095181414,0.776305576583,0.630356289801
59403746337003,15969,59403746337003,map,153.441925049,104.400947571,0.0750474557281,0.000337257669967,0.000629873666246,0.777950962366,0.628324589421
59403796337004,15970,59403796337004,map,153.375091553,104.681716919,0.0751122683287,0.000253831521547,0.000614201389712,0.779690000886,0.62616536222
59403846337005,15971,59403846337005,map,153.30708313,104.961402893,0.07513961941,0.000196450138162,0.000581292792584,0.781040861828,0.624479619893
59403896337005,15972,59403896337005,map,153.236846924,105.237579346,0.075194016099,0.000276006903852,0.00075368424969,0.782927233632,0.622112773231
59403946337006,15973,59403946337006,map,153.091262817,105.783950806,0.0752495154738,0.000257028276277,0.000810529266301,0.78680904567,0.617195919163
59404096337008,15974,59404046337008,map,153.016937256,106.054450989,0.0752532929182,0.000215153394718,0.000765544724636,0.788504618806,0.615028319488
59404096337008,15975,59404096337008,map,152.942764282,106.32207489,0.0752822458744,0.000153287959488,0.000728892481638,0.790320069518,0.612693751343
59404146337009,15976,59404146337009,map,152.867401123,106.588638306,0.0752760320902,0.000115723820633,0.000674848677,0.791740098107,0.610857715214
59404196337010,15977,59404196337010,map,152.792144775,106.853134155,0.0752786621451,7.81525389898e-05,0.000632312193771,0.793272367602,0.608866606797
59404246337010,15978,59404246337010,map,152.71270752,107.118453979,0.0752000063658,0.000243421658862,0.000744672724542,0.794900262716,0.60673961346
59404296337011,15979,59404296337011,map,152.630706787,107.385566711,0.0750725567341,0.000368174373102,0.000742237522579,0.796873116936,0.604146132186
59404346337012,15980,59404346337012,map,152.458343506,107.932624817,0.0746870413423,0.000574244909401,0.000506704263296,0.800632135437,0.599155737015
59404446337013,15981,59404446337013,map,152.277755737,108.491127014,0.0744304284453,0.000668986112037,0.000293917322897,0.803961282073,0.594681194421
59404546337015,15982,59404546337015,map,152.185012817,108.772743225,0.0743731707335,0.000671624282068,0.000222588029475,0.805354905132,0.5927925237
59404596337016,15983,59404596337016,map,152.089416504,109.05254364,0.0744062811136,0.000765810022661,0.000397812293898,0.807181032934,0.59030334181
59404646337016,15984,59404646337016,map,151.991165161,109.33190918,0.0744507610798,0.000774431473202,0.000474388039047,0.809005483145,0.587800394227
59404696337017,15985,59404696337017,map,151.792068481,109.885864258,0.0746218860149,0.000611982270382,0.000495395271153,0.812681324905,0.582707854943
59404796337019,15986,59404796337019,map,151.691772461,110.160263062,0.0747261792421,0.000504932239745,0.000495154613476,0.814434324591,0.580255315179
59404896337020,15987,59404846337019,map,151.590209961,110.433815002,0.0747969001532,0.000419300854053,0.000476718066955,0.815833059942,0.578287139085
59404896337020,15988,59404896337020,map,151.488967896,110.704986572,0.0748884156346,0.000324109558107,0.000473184198099,0.817311166306,0.576196258649
59404946337021,15989,59404946337021,map,151.38432312,110.97416687,0.0749475806952,0.000390557730808,0.000652241608936,0.818838824658,0.574022997169
59405046337022,15990,59405046337022,map,151.171936035,111.505104065,0.0750629380345,0.000330675714939,0.000737478782425,0.822421195186,0.568878479543
59405096337023,15991,59405096337023,map,151.065246582,111.767204285,0.0751213431358,0.000256642200241,0.00071783915487,0.824215232035,0.566276142993
59405146337024,15992,59405146337024,map,150.957351685,112.028106689,0.0751425549388,0.000202229037464,0.000673120359805,0.825653010008,0.56417782044
59405196337025,15993,59405196337025,map,150.850036621,112.28629303,0.0751873031259,0.000134537410795,0.00064164192173,0.827188216677,0.561924571794
59405246337025,15994,59405246337025,map,150.741729736,112.54335022,0.075196377933,9.31356940465e-05,0.000596419814349,0.828366561178,0.560186108299
59405296337026,15995,59405296337026,map,150.631942749,112.796600342,0.0752373486757,0.000164607240149,0.000763090787946,0.830027979191,0.557721206659
59405346337027,15996,59405346337027,map,150.520050049,113.048202515,0.0752395987511,0.000192393605968,0.000810785380019,0.831614463288,0.55535276182
59405396337028,15997,59405396337028,map,150.293869019,113.548355103,0.0751692578197,0.00019341410315,0.000718819003341,0.834923641285,0.550365296067
59405546337030,15998,59405496337029,map,150.177734375,113.801254272,0.0750384479761,0.000253164643918,0.000621156013486,0.836478067812,0.54799999283
59405546337030,15999,59405546337030,map,150.057647705,114.060211182,0.0747970938683,0.000389703527761,0.000476432928074,0.837877556763,0.545857876206
59405596337031,16000,59405596337031,map,149.93460083,114.323417664,0.0745697766542,0.000518327797677,0.000340412767199,0.839205842052,0.543813543525
59405646337031,16001,59405646337031,map,149.805862427,114.590270996,0.0743568763137,0.000776771272412,0.000424218437382,0.840821067576,0.541312431952
59405696337032,16002,59405696337032,map,149.673736572,114.858795166,0.0742278620601,0.000905115646601,0.000435500312011,0.842625262586,0.538499450284
59405746337033,16003,59405746337033,map,149.538452148,115.130302429,0.0741275399923,0.000962136362037,0.000379577443059,0.844410273854,0.535696014196
59405846337034,16004,59405846337034,map,149.261810303,115.67678833,0.0740999951959,0.000918068873188,0.000278896547395,0.847670679734,0.530521911033
59405896337035,16005,59405896337035,map,149.121185303,115.950828552,0.0741536319256,0.000848572241018,0.000253636517045,0.849120090001,0.528199099157
59405946337036,16006,59405946337036,map,148.978897095,116.225700378,0.0742064639926,0.000780632532217,0.000228775056689,0.850392964738,0.526147454427
59405996337037,16007,59405996337037,map,148.833938599,116.497940063,0.0743152946234,0.000814650237412,0.000453368672491,0.852016339218,0.523514363229
59406046337037,16008,59406046337037,map,148.686599731,116.768745422,0.0744185969234,0.000779871268445,0.000560615687889,0.853672433262,0.52080942215
59406096337038,16009,59406096337038,map,148.539215088,117.03691864,0.0745575278997,0.000670411409903,0.000602999153606,0.855466612429,0.517857182975
59406146337039,16010,59406146337039,map,148.242675781,117.567504883,0.0747978538275,0.000434122946821,0.000597891691325,0.858551041349,0.512727572363
59406246337040,16011,59406246337040,map,148.09375,117.829872131,0.0748882293701,0.000354222670067,0.000607994178665,0.859799154509,0.510631881863
59406346337042,16013,59406346337042,map,147.79473877,118.346450806,0.0749719589949,0.00029707072339,0.000832974679311,0.862479788478,0.506090735313
59406396337043,16014,59406396337043,map,147.643447876,118.599815369,0.0750477984548,0.000268969213385,0.000916489063162,0.864190790421,0.503163358617
59406446337043,16015,59406446337043,map,147.490951538,118.851303101,0.0750921219587,0.000223245532669,0.000899407046156,0.865694396725,0.500572025494
59406496337044,16016,59406496337044,map,147.339187622,119.099937439,0.0751561373472,0.000151165822156,0.000860397825199,0.86729897867,0.497786820298
59406546337045,16017,59406546337045,map,147.186538696,119.346946716,0.0751834884286,0.000101491138833,0.000798570306806,0.868591360713,0.495528404916
59406646337046,16018,59406646337046,map,146.880569458,119.83253479,0.0751960352063,0.000147082746928,0.000914558777591,0.871329977068,0.490696660893
59406696337047,16019,59406696337047,map,146.726318359,120.070449829,0.0751769989729,0.000165362814214,0.000958308986573,0.873014069245,0.487694052864
59406796337048,16021,59406796337048,map,146.416564941,120.53981781,0.0751930996776,9.62559774928e-05,0.000857319723448,0.876022445532,0.482269562238
59406846337049,16022,59406846337049,map,146.261352539,120.771522522,0.0751994326711,6.04847373191e-05,0.00078517021144,0.877260371263,0.480014188187
59406896337050,16023,59406896337050,map,146.107345581,121.000541687,0.0752362012863,6.44449787425e-06,0.000729474672688,0.878583358611,0.477588473266
59406946337051,16024,59406946337051,map,145.95262146,121.228179932,0.0752383768559,-2.028637438e-05,0.000665631612766,0.879593927903,0.475724792837
59406996337051,16025,59406996337051,map,145.796798706,121.452392578,0.0752545893192,5.66180086749e-05,0.000819772224768,0.881005192042,0.473105882825
59407046337052,16026,59407046337052,map,145.476272583,121.902809143,0.075053177774,0.000226364293323,0.000773434466845,0.883891102376,0.467692067175
59407146337054,16027,59407146337054,map,145.30960083,122.133796692,0.0748134627938,0.000378622984348,0.000641908148317,0.885276186386,0.465065069014
59407196337054,16028,59407196337054,map,145.139144897,122.368270874,0.0745862945914,0.000518285406564,0.000509446202748,0.886600397015,0.462535628744
59407246337055,16029,59407246337055,map,144.96434021,122.607017517,0.0743642821908,0.000653053971276,0.000377739548121,0.887823511581,0.460183488532
59407296337056,16030,59407296337056,map,144.786972046,122.847694397,0.0742278620601,0.000728081029091,0.000281599353035,0.888956397618,0.457991172113
59407396337057,16031,59407346337057,map,144.604354858,123.089271545,0.0741307064891,0.000895565743768,0.000432931600232,0.890324058498,0.455326346033
59407396337057,16032,59407396337057,map,144.418945312,123.330566406,0.0741125494242,0.000943029349244,0.000496675336357,0.891845775906,0.452338342403
59407496337059,16033,59407496337059,map,144.041137695,123.814941406,0.0741621032357,0.000870964718253,0.00045164569598,0.894762687426,0.446540894685
59407596337060,16034,59407546337060,map,143.849639893,124.057304382,0.0742142871022,0.000802737928284,0.000413694589867,0.896034440269,0.443983632943
59407646337061,16035,59407596337060,map,143.657989502,124.298377991,0.0743157938123,0.000699839375545,0.000394631680557,0.897262116524,0.441497507062
59407646337061,16036,59407646337061,map,143.465377808,124.538589478,0.074413754046,0.000599716542107,0.000373649463318,0.898259992457,0.439463862766
59407696337062,16037,59407696337062,map,143.271728516,124.774803162,0.0745566561818,0.000583989276838,0.00060628741122,0.899604879623,0.436703963722
59407746337063,16038,59407746337063,map,143.076416016,125.008514404,0.0746718198061,0.000530276146586,0.000713190431768,0.900940371411,0.433941997654
59407896337065,16039,59407846337064,map,142.686508179,125.468513489,0.0748912021518,0.000329690204049,0.000718015658244,0.903641536048,0.428288862902
59407896337065,16040,59407896337065,map,142.492340088,125.695053101,0.0749918743968,0.000225045365152,0.000691970715415,0.904922430884,0.425575921094
59407946337066,16041,59407946337066,map,142.297668457,125.919921875,0.0750508084893,0.000150358381638,0.000649982162869,0.905935048949,0.423416156991
59407996337066,16042,59407996337066,map,142.102584839,126.140533447,0.0751295089722,0.000165345850061,0.000835544553286,0.907284531747,0.420516412258
59408046337067,16043,59408046337067,map,141.906097412,126.358558655,0.0751674994826,0.000157418977764,0.000897079439708,0.908583785747,0.417701657581
59408096337068,16044,59408096337068,map,141.710693359,126.573730469,0.0752214789391,0.000100301748231,0.000884969388829,0.910013871905,0.414576844155
59408146337069,16045,59408146337069,map,141.514648438,126.78704071,0.0752381533384,5.7472685108e-05,0.000829827155744,0.911194503269,0.411975588229
59408296337071,16046,59408246337070,map,141.125,127.206947327,0.075348354876,-4.38297078873e-05,0.000641532306416,0.91339690185,0.407069633116
59408346337072,16048,59408346337072,map,140.736099243,127.617088318,0.0752865225077,-5.94375738894e-06,0.0008528587651,0.91546568899,0.402395135258
59408396337072,16049,59408396337072,map,140.541381836,127.817108154,0.0753018185496,-8.57536580385e-06,0.000914003387797,0.916789732714,0.399369190743
59408446337073,16050,59408446337073,map,140.34588623,128.015274048,0.0752901434898,-1.90941831014e-05,0.000878102392962,0.917926934157,0.396748499835
59408496337074,16051,59408496337074,map,140.151473999,128.211334229,0.0752954855561,-4.86733499092e-05,0.000821575045967,0.919152933785,0.39389999614
59408546337075,16052,59408546337075,map,139.955825806,128.406570435,0.0752548202872,-4.44173488703e-05,0.000742979250077,0.920136206993,0.391597761215
59408596337075,16053,59408596337075,map,139.760574341,128.600646973,0.0752215534449,-4.23111134675e-05,0.000673178859671,0.92117392254,0.389150548596
59408596337075,16054,59408646337076,map,139.562347412,128.79598999,0.075103983283,2.65995605778e-05,0.000584184297361,0.9220160097,0.387151308764
59408746337078,16055,59408746337078,map,139.153106689,129.192276001,0.0747226700187,0.00038788534573,0.000636636830446,0.923915432792,0.382596023618
59408796337078,16056,59408796337078,map,138.940917969,129.39201355,0.0745469257236,0.000552569122592,0.000660874675215,0.925128115837,0.379654088875
59408846337079,16057,59408846337079,map,138.724365234,129.593826294,0.0743936151266,0.0006633283145,0.000593269401201,0.926319443646,0.376737967757
59408896337080,16058,59408896337080,map,138.505615234,129.796112061,0.0743634030223,0.000683325590636,0.000514862916236,0.9274672476,0.373903426852
59408946337081,16059,59408946337081,map,138.283889771,129.999679565,0.0742414072156,0.000735060655044,0.000460368340149,0.928516939283,0.371289026516
59408996337081,16060,59408996337081,map,138.061279297,130.202789307,0.0742278248072,0.00071161079277,0.000411073619171,0.929516272118,0.368780184521
59409046337082,16061,59409046337082,map,137.837051392,130.40574646,0.0742511749268,0.000667075802219,0.000364942453622,0.930344473818,0.366685944458
59409096337083,16062,59409096337083,map,137.611801147,130.605041504,0.0743547827005,0.000665558526687,0.000592028483153,0.931460334168,0.363841795847
59409146337084,16063,59409146337084,map,137.384902954,130.802062988,0.0744544193149,0.000617122246875,0.000690135786805,0.932576676231,0.360970754802
59409196337084,16064,59409196337084,map,137.158889771,130.996688843,0.0745867490768,0.000509154328767,0.000709122295372,0.933800377798,0.357793365411
59409246337085,16065,59409246337085,map,136.932144165,131.189697266,0.0746873095632,0.000411525342969,0.000681017979675,0.934826346962,0.355104305645
59409296337086,16066,59409296337086,map,136.706756592,131.380569458,0.0748046860099,0.000298831166371,0.00065175230722,0.935890829114,0.352289429161
59409346337086,16067,59409346337086,map,136.256744385,131.75718689,0.074973449111,0.000124731324789,0.0005762354156,0.937618382795,0.347665673657
59409446337088,16068,59409446337088,map,136.032287598,131.943008423,0.0750250220299,6.55896230586e-05,0.000535217237245,0.938291241575,0.345845710142
59409546337089,16070,59409546337089,map,135.582519531,132.303329468,0.0751345828176,8.3772524778e-05,0.000843135458395,0.940269999142,0.340428569334
59409596337090,16071,59409596337090,map,135.358612061,132.479598999,0.0751877948642,3.38302200446e-05,0.000838099560456,0.941383096712,0.337338348947
59409646337091,16072,59409646337091,map,135.134292603,132.654083252,0.075203821063,-4.18568447458e-07,0.000786333421779,0.942301323202,0.334764989166
59409696337092,16073,59409696337092,map,134.911804199,132.826370239,0.0752427279949,-5.44764605313e-05,0.000733897714326,0.943277911448,0.332003373779
59409746337092,16074,59409746337092,map,134.689056396,132.997024536,0.0752464681864,-8.12895149105e-05,0.00067178763266,0.944037412822,0.329837695369
59409796337093,16075,59409796337093,map,134.468322754,133.165649414,0.0752761811018,-0.000125322958056,0.000622353374609,0.944856699175,0.327483457588
59409846337094,16076,59409846337094,map,134.245880127,133.330596924,0.075276106596,-6.30573102893e-05,0.000803839552502,0.945700770864,0.325037539144
59409896337095,16077,59409896337095,map,134.02406311,133.492889404,0.0752830505371,-4.85426290789e-05,0.00086895010877,0.946770945879,0.321906847721
59409946337095,16078,59409946337095,map,133.572341919,133.817687988,0.0750725120306,8.67368319066e-05,0.000754089850126,0.948714421938,0.31613346775
59410046337097,16079,59410046337097,map,133.339828491,133.98274231,0.0748630091548,0.000228396803995,0.000649467605508,0.949595727738,0.313476442318
59410096337098,16080,59410096337098,map,133.104171753,134.148925781,0.0746868103743,0.000344863184237,0.000554275826404,0.950442732369,0.310898996999
59410146337098,16081,59410146337098,map,132.864395142,134.31678772,0.0745172873139,0.000456883848741,0.000461456870489,0.951193503169,0.308594390493
59410196337099,16082,59410196337099,map,132.623016357,134.484848022,0.0744304284453,0.000507528227616,0.000394275424978,0.951917136438,0.306354944986
59410246337100,16083,59410246337100,map,132.377670288,134.650802612,0.0743802264333,0.000615549027408,0.000599804486406,0.952760860197,0.303720273626
59410296337101,16084,59410296337101,map,132.131698608,134.814620972,0.0744112357497,0.00061553513834,0.000689841334857,0.953785685569,0.300486291267
59410346337101,16085,59410346337101,map,131.884277344,134.977142334,0.07445281744,0.00057437426411,0.000681095992211,0.954708918435,0.297540059931
59410396337102,16086,59410396337102,map,131.637802124,135.137939453,0.0745463147759,0.000483670112659,0.000653667298515,0.95567252468,0.294430576459
59410446337103,16087,59410446337103,map,131.390548706,135.297393799,0.0746213123202,0.000404187379502,0.000608957660179,0.956458968199,0.291865907489
59410496337104,16088,59410496337104,map,131.144729614,135.45513916,0.0747247263789,0.000303969454953,0.000574618160397,0.95727360697,0.289183019584
59410546337104,16089,59410546337104,map,130.898468018,135.611541748,0.074795037508,0.000230488166637,0.000533031710936,0.957909978925,0.287068171395
59410596337105,16090,59410596337105,map,130.652679443,135.763977051,0.074921682477,0.000202675123331,0.00068581113022,0.958785937511,0.284128517781
59410646337106,16091,59410646337106,map,130.405883789,135.913635254,0.0750385671854,0.000196064080302,0.000769454571037,0.959636579765,0.281241896373
59410746337107,16092,59410746337107,map,129.915176392,136.206741333,0.0750511139631,7.25302844264e-05,0.000797128232075,0.961377143068,0.275233261274
59410796337108,16093,59410796337108,map,129.671569824,136.350479126,0.0750962793827,1.22771682766e-06,0.000745679409504,0.962206903173,0.272318415549
59410896337110,16094,59410846337109,map,129.427764893,136.492630005,0.0751143991947,-3.81056401866e-05,0.000682873373053,0.962856994556,0.270011000271
59410946337110,16095,59410896337110,map,129.186065674,136.633010864,0.0751602500677,-9.20727199347e-05,0.000630875333842,0.96355053531,0.267525623863
59410946337110,16096,59410946337110,map,128.94317627,136.769638062,0.0752547457814,-9.2987537237e-05,0.000768137063116,0.964257038391,0.264967479575
59410946337110,16097,59410996337111,map,128.70173645,136.903182983,0.0752242654562,-6.85209657307e-05,0.000890858732731,0.965129014504,0.261773159507
59411046337112,16098,59411046337112,map,128.46005249,137.034942627,0.0751752853394,-6.09093327487e-05,0.000857767493679,0.965882178904,0.258980456793
59411096337113,16099,59411096337113,map,128.21975708,137.165145874,0.0751664713025,-7.78089899651e-05,0.000797878732126,0.966692302007,0.255940130844
59411146337113,16100,59411146337113,map,127.976875305,137.295120239,0.0750856399536,-3.11697382656e-05,0.000718620503074,0.967360842608,0.253401820832
59411196337114,16101,59411196337114,map,127.478759766,137.558776855,0.0747299939394,0.000229460944488,0.000546450688564,0.96863857297,0.248473265553
59411296337116,16102,59411296337116,map,127.221405029,137.693466187,0.0745135098696,0.000392604131977,0.000459640329053,0.969205655871,0.246251966936
59411346337116,16103,59411346337116,map,126.957244873,137.827453613,0.0743110254407,0.000612778092548,0.000642562586012,0.969914818424,0.243442922712
59411396337117,16104,59411396337117,map,126.689331055,137.960647583,0.0741912797093,0.000730665057933,0.000706032652175,0.970716213678,0.240226976314
59411446337118,16105,59411446337118,map,126.417106628,138.094268799,0.074098393321,0.000801210048607,0.000675542002373,0.971508909819,0.237000716978
59411496337119,16106,59411496337119,map,126.142868042,138.227371216,0.0740834027529,0.00080157787099,0.000625399610765,0.972259978093,0.2339006228
59411546337119,16107,59411546337119,map,125.865684509,138.360565186,0.0740824118257,0.000788196687223,0.000567073317584,0.972946185144,0.23102982056
59411596337120,16108,59411596337120,map,125.587646484,138.492950439,0.0741395950317,0.000729283513704,0.000520506956862,0.973579223268,0.228347746297
59411646337121,16109,59411646337121,map,125.307762146,138.624954224,0.0741952881217,0.000671902168014,0.000474790436914,0.974132364229,0.225976680397
59411696337122,16110,59411696337122,map,125.027290344,138.753173828,0.0743064880371,0.00063320421805,0.00070590151225,0.974835871621,0.222921789326
59411746337122,16111,59411746337122,map,124.745780945,138.878753662,0.0744112357497,0.00056631789811,0.000800073982565,0.975551664822,0.219768033228
59411796337123,16112,59411796337123,map,124.465805054,139.002182007,0.0745514631271,0.000448691861547,0.000805787680449,0.976319816764,0.216330221597
59411846337124,16113,59411846337124,map,124.185836792,139.123641968,0.0746648386121,0.000343836196634,0.000766921397247,0.97696524207,0.213396835487
59411896337124,16114,59411896337124,map,123.907905579,139.243270874,0.0747943073511,0.000224833979338,0.000723606713228,0.977625522861,0.210351522202
59411946337125,16115,59411946337125,map,123.630203247,139.361129761,0.074883878231,0.000137664692035,0.00067092308675,0.978149917584,0.207899662437
59411996337126,16116,59411996337126,map,123.354736328,139.477371216,0.0749849304557,4.31261885602e-05,0.000625902436341,0.978693173712,0.205327246404
59412046337127,16117,59412046337127,map,123.078704834,139.589416504,0.075050316751,2.98650044121e-05,0.000825293366984,0.979254774589,0.202631203034
59412096337127,16118,59412096337127,map,122.8045578,139.698501587,0.075128056109,-2.02351099624e-05,0.000905612206084,0.9799484979,0.199248891891
59412146337128,16119,59412146337128,map,122.530555725,139.805343628,0.0751649066806,-5.76533755697e-05,0.000884282980512,0.980553226547,0.196251330256
59412196337129,16120,59412196337129,map,122.258872986,139.910354614,0.075218424201,-0.000114962824202,0.000832605028981,0.98119072902,0.19303897751
59412246337130,16121,59412246337130,map,121.987480164,140.01348877,0.0752350613475,-0.000144542366937,0.000765088978364,0.981700683753,0.190428887685
59412296337130,16122,59412296337130,map,121.718551636,140.11505127,0.0752730518579,-0.000189930971128,0.000703236908578,0.982233455273,0.187661686891
59412346337131,16123,59412346337131,map,121.44997406,140.214950562,0.0752766802907,-0.00020652683331,0.000640100261367,0.982642376887,0.185508778134
59412396337132,16124,59412396337132,map,121.18321991,140.311019897,0.075310587883,-0.000200944461968,0.000823466920502,0.98320542784,0.182500323807
59412496337133,16125,59412496337133,map,120.652061462,140.495452881,0.0753331333399,-0.000218842388157,0.000853667217797,0.984336773388,0.176296171022
59412546337134,16126,59412546337134,map,120.387939453,140.584854126,0.0753235965967,-0.000224996513551,0.000790309294165,0.984820019974,0.173576648905
59412596337135,16127,59412596337135,map,120.126403809,140.672775269,0.0753420218825,-0.000253814026895,0.00072550884247,0.985331189629,0.170651270018
59412646337136,16128,59412646337136,map,119.865097046,140.759078979,0.075326114893,-0.000254307664717,0.000657555165862,0.985725488716,0.168359032557
59412696337136,16129,59412696337136,map,119.605613708,140.844329834,0.0753205120564,-0.00026116194067,0.000600139737638,0.986146796026,0.165873651659
59412746337137,16130,59412746337137,map,119.343208313,140.926925659,0.0752337649465,-0.000166802014599,0.00074382257742,0.986573033724,0.16331891511
59412796337138,16131,59412796337138,map,119.077796936,141.008636475,0.0750955939293,-4.90297749972e-05,0.000783282486005,0.987074220595,0.160261870389
59412846337139,16132,59412846337139,map,118.805152893,141.091064453,0.0748468413949,0.000144594728072,0.000736099283298,0.987549470014,0.157306965915
59412896337139,16133,59412896337139,map,118.527359009,141.173919678,0.0746122375131,0.000322955094408,0.000665176756622,0.98800505934,0.154419739535
59412946337140,16134,59412946337140,map,118.243553162,141.257476807,0.0743845328689,0.000494846519364,0.000586574909728,0.988423969958,0.151715083854
59412996337141,16135,59412996337141,map,117.956512451,141.340957642,0.0742437690496,0.000598067694838,0.000520043629757,0.988808964586,0.14918513138
59413046337142,16136,59413046337142,map,117.665290833,141.424713135,0.0741353183985,0.000676021533012,0.00045974333385,0.989156622538,0.146862206575
59413096337142,16137,59413096337142,map,117.372314453,141.508056641,0.0741088837385,0.000689245841157,0.000413902544398,0.9894733894,0.144712699146
59413146337143,16138,59413146337143,map,117.07624054,141.589935303,0.0741029307246,0.000706467768912,0.000503896626544,0.989809849364,0.142392798599
59413196337144,16139,59413196337144,map,116.779441833,141.670410156,0.0741570293903,0.000665151323224,0.000534817542473,0.990160536931,0.13993349366
59413246337145,16140,59413246337145,map,116.480934143,141.750137329,0.0742108523846,0.000616948483504,0.000515361986548,0.990480886485,0.137647983218
