%time,field.header.seq,field.header.stamp,field.header.frame_id,field.pose.position.x,field.pose.position.y,field.pose.position.z,field.pose.orientation.x,field.pose.orientation.y,field.pose.orientation.z,field.pose.orientation.w
117577480915,1797,117577480915,map,193.75289917,-162.034500122,0.253633797169,0.00148566412095,-0.00152809312474,0.707223898273,0.706986432292
117627480916,1798,117627480916,map,193.752792358,-161.573760986,0.253584384918,0.00151526885905,-0.00155445666124,0.707187548688,0.707022671917
117677480917,1799,117677480917,map,193.752670288,-161.102264404,0.253557056189,0.00153225755294,-0.00156857041384,0.707155130781,0.707055028115
117727480918,1800,117727480918,map,193.752639771,-160.620147705,0.253545820713,0.00154002957607,-0.00157344082798,0.707129652028,0.707080481851
117777480918,1801,117777480918,map,193.752593994,-160.127563477,0.253546148539,0.0015410903693,-0.00157195753142,0.707108705973,0.70710142973
117827480919,1802,117827480919,map,193.752548218,-159.62461853,0.253554463387,0.00153758841669,-0.00156551243229,0.707092807763,0.707117349669
117877480920,1803,117877480920,map,193.752532959,-159.111404419,0.253568410873,0.00153083052424,-0.00155616987921,0.707080964387,0.707129227719
117927480921,1804,117927480921,map,193.7525177,-158.588058472,0.253585785627,0.00152228987258,-0.0015446483881,0.707073409766,0.707136825443
117977480921,1805,117977480921,map,193.7525177,-158.054656982,0.253605335951,0.00151186259541,-0.00153273779965,0.707067833107,0.707142449845
118027480922,1806,118027480922,map,193.752502441,-157.511306763,0.253625869751,0.00150103859418,-0.00152004395363,0.707064423609,0.707145909425
118077480923,1807,118077480923,map,193.752502441,-156.958084106,0.253646731377,0.00149000730825,-0.00150713594991,0.707062615078,0.7071477687
118127480924,1808,118127480924,map,193.752502441,-156.395065308,0.253667354584,0.00147849690794,-0.00149487565109,0.707061511154,0.707148922673
118177480924,1809,118177480924,map,193.752502441,-155.822341919,0.253687620163,0.00146751284091,-0.00148276322966,0.707060783355,0.707149698763
118227480925,1810,118227480925,map,193.752502441,-154.648040771,0.253725975752,0.00144670753019,-0.00145931467981,0.707061914994,0.707148658914
118327480927,1811,118327480927,map,193.752502441,-154.046630859,0.253744125366,0.00143648804068,-0.00144871379144,0.707062737166,0.707147879472
118377480927,1812,118377480927,map,193.752502441,-153.435775757,0.253761410713,0.00142685818168,-0.0014387031723,0.707063510897,0.707147145767
118427480928,1813,118427480928,map,193.752502441,-152.815567017,0.2537779212,0.0014176282347,-0.0014287143494,0.707064614009,0.7071460816
118527480930,1815,118527480930,map,193.752502441,-151.547317505,0.253808706999,0.00140007601441,-0.00141077906719,0.707065779955,0.707144986765
118577480930,1816,118577480930,map,193.752502441,-150.899368286,0.253823161125,0.00139215150499,-0.00140209782904,0.70706640927,0.707144390431
118627480931,1817,118627480931,map,193.752502441,-150.245040894,0.253904253244,0.00134566978993,-0.00135560379076,0.707068383148,0.707142597404
118677480932,1818,118677480932,map,193.7525177,-149.591186523,0.254148334265,0.00120634778696,-0.00121549278008,0.707074805387,0.707136681901
118727480933,1819,118727480933,map,193.752532959,-148.937988281,0.254456043243,0.0010313050575,-0.00103852553884,0.707083938465,0.707128108506
118777480933,1820,118777480933,map,193.752532959,-148.285400391,0.254768788815,0.000853184495231,-0.000859241416383,0.707093500777,0.707119024592
118827480934,1821,118827480934,map,193.752548218,-147.633407593,0.255056977272,0.000689303870923,-0.000694208230515,0.707102250423,0.707110635178
118877480935,1822,118877480935,map,193.752578735,-146.982025146,0.255307793617,0.000546807022493,-0.000550191021955,0.707110239247,0.707102897635
118927480936,1823,118927480936,map,193.752578735,-146.331192017,0.25551867485,0.000426899631265,-0.000429524230005,0.707116395905,0.707096907014
118977480936,1824,118977480936,map,193.752593994,-145.680938721,0.255691558123,0.000328779982652,-0.000330649565918,0.707121250976,0.707092157355
119027480937,1825,119027480937,map,193.752532959,-144.382217407,0.255940467119,0.000187330924284,-0.00018845039355,0.70712634045,0.707087171455
119127480939,1826,119127480939,map,193.752532959,-143.730331421,0.255940437317,0.00018743718148,-0.000188934187251,0.707124598463,0.707088913376
119177480939,1827,119177480939,map,193.7525177,-143.06880188,0.255747318268,0.000297673369469,-0.000299547432688,0.707117451548,0.707095984558
119227480940,1828,119227480940,map,193.7525177,-142.397796631,0.255479067564,0.000450645265109,-0.000453657369479,0.707107341837,0.707105931409
119277480941,1829,119277480941,map,193.752502441,-141.717575073,0.255200952291,0.000608987305437,-0.000613523871161,0.707096675563,0.707116358268
119327480942,1830,119327480942,map,193.752471924,-141.028289795,0.25494608283,0.000753922279499,-0.000759991945076,0.707085987529,0.707126763921
119377480942,1831,119377480942,map,193.752456665,-140.330062866,0.254728227854,0.000877613292833,-0.000885220000341,0.70707647293,0.707135989474
119427480943,1832,119427480943,map,193.752441406,-139.623077393,0.254552602768,0.000977342418861,-0.000986109435231,0.707068429907,0.707143767432
119477480944,1833,119477480944,map,193.752441406,-138.908203125,0.25443226099,0.00104567322731,-0.0010548400394,0.707063010579,0.707148989217
119527480944,1834,119527480944,map,193.752441406,-138.186721802,0.254377961159,0.001076203767,-0.00108575947645,0.70706013891,0.707151767923
119577480945,1835,119577480945,map,193.752441406,-137.459854126,0.254387110472,0.00107087120726,-0.00108004959489,0.707060147653,0.70715177602
119627480946,1836,119627480946,map,193.752441406,-136.72958374,0.254474520683,0.00102101699926,-0.00102942583414,0.707063613002,0.70714846035
119677480947,1837,119677480947,map,193.752456665,-136.0025177,0.254746615887,0.000865554944589,-0.000873170280008,0.707072533149,0.707139958745
119777480948,1838,119777480948,map,193.7525177,-134.589141846,0.256018400192,0.000140740095764,-0.000143751142005,0.707111662719,0.707101871002
119877480950,1840,119877480950,map,193.752609253,-133.263381958,0.257817685604,-0.000883236638494,0.000886930727959,0.707174956025,0.707037491805
119927480950,1841,119927480950,map,193.752685547,-132.6378479,0.258678346872,-0.00137276471155,0.00137959232394,0.707210082493,0.707000786041
119977480951,1842,119977480951,map,193.752731323,-132.038467407,0.259453356266,-0.00181361376951,0.00182348862195,0.707244473199,0.70696438441
120027480952,1843,120027480952,map,193.752731323,-131.46585083,0.260128587484,-0.00219779217065,0.00221017386116,0.707276363857,0.7069302865
120077480953,1844,120077480953,map,193.752716064,-130.920471191,0.260702192783,-0.00252480199626,0.00253854489429,0.707303264173,0.706901176725
120127480953,1845,120127480953,map,193.752685547,-130.402679443,0.261179924011,-0.00279701322914,0.00281246954845,0.70732538193,0.706876984213
120177480954,1846,120177480954,map,193.752670288,-129.912689209,0.261571139097,-0.00302024528108,0.00303666542364,0.707342101906,0.706858407075
120227480955,1847,120227480955,map,193.752670288,-129.4506073,0.261886179447,-0.00320059114081,0.00321709353727,0.707353256589,0.706845652825
120327480956,1848,120327480956,map,193.752670288,-128.610427856,0.262502163649,-0.00341445559626,0.00343194297433,0.707360763161,0.706836129524
120427480958,1849,120427480958,map,193.752609253,-127.866325378,0.262487620115,-0.00337497500804,0.00339412700455,0.707349557435,0.706847715595
120477480959,1850,120477480959,map,193.752532959,-127.507392883,0.262008965015,-0.00310086390681,0.00311839462425,0.70732579197,0.706874022915
120527480959,1851,120527480959,map,193.752471924,-127.151611328,0.261360824108,-0.00273350966788,0.00274750940489,0.707295940505,0.706906946962
120577480960,1852,120577480960,map,193.752441406,-126.797142029,0.260642081499,-0.00232550115025,0.00233795760129,0.707266774633,0.706939060669
120627480961,1853,120627480961,map,193.752380371,-126.443832397,0.26002201438,-0.00194737991293,0.00195743807259,0.707240019887,0.706968125461
120677480962,1854,120677480962,map,193.752334595,-126.090370178,0.259437531233,-0.00159294678292,0.00160043404726,0.707216065648,0.706993873822
120727480962,1855,120727480962,map,193.752304077,-125.737861633,0.258918970823,-0.0012879981181,0.00129298966129,0.707194383027,0.707016812992
120777480963,1856,120777480963,map,193.752243042,-125.03338623,0.258084446192,-0.000808993506506,0.000810119438028,0.707158666348,0.707053965299
120877480965,1857,120877480965,map,193.752227783,-124.68106842,0.257755458355,-0.000622382858378,0.00062322492126,0.707145251023,0.707067760675
120927480965,1858,120927480965,map,193.752197266,-124.330360413,0.257525831461,-0.000493260261682,0.000493565885589,0.707134996664,0.70707822027
121027480967,1859,120977480966,map,193.752182007,-123.97869873,0.257308661938,-0.000371554355195,0.000371157335764,0.707126079837,0.707087286976
121027480967,1860,121027480967,map,193.752182007,-123.628677368,0.257173985243,-0.000296777986209,0.000295638050931,0.707118724292,0.707094713795
121077480968,1861,121077480968,map,193.752166748,-123.277664185,0.257033675909,-0.000218443324034,0.000216933582927,0.707111973601,0.707101521715
121127480968,1862,121127480968,map,193.752151489,-122.928276062,0.256961196661,-0.000178905161926,0.0001766456205,0.707106335416,0.70710718226
121177480969,1863,121177480969,map,193.752151489,-122.243934631,0.257098525763,-0.000258758782684,0.000258383017692,0.707105557016,0.707107910802
121277480971,1864,121277480971,map,193.752151489,-121.907104492,0.257162630558,-0.000295866879554,0.000295874814441,0.707106483893,0.707106954681
121327480971,1865,121327480971,map,193.752151489,-121.572937012,0.257203072309,-0.00031949806221,0.000319700989254,0.70710557903,0.707107838888
121377480972,1866,121377480972,map,193.752151489,-121.239242554,0.257180601358,-0.000307230925925,0.000307438676178,0.707106714352,0.707106714442
121427480973,1867,121427480973,map,193.752151489,-120.906616211,0.257141590118,-0.000285452830824,0.000285468314337,0.707099143889,0.707114303162
121477480974,1868,121477480974,map,193.752166748,-120.573257446,0.257057905197,-0.000238024082261,0.000237645207953,0.707110083816,0.707103398546
121527480974,1869,121527480974,map,193.752105713,-120.24016571,0.256980925798,-0.000194497975063,0.000193758791069,0.707081096405,0.707132411741
121577480975,1870,121577480975,map,193.752182007,-119.905838013,0.256881326437,-0.000137839541985,0.000136704993374,0.707118772882,0.707094762638
121627480976,1871,121627480976,map,193.752105713,-119.571495056,0.256805628538,-9.52606322009e-05,9.33887597108e-05,0.707064544362,0.707149002906
121677480977,1872,121677480977,map,193.752044678,-118.899658203,0.256655454636,-6.61096440598e-06,1.07533626822e-05,0.7070772152,0.707136345824
121777480978,1873,121777480978,map,193.752090454,-118.561904907,0.256465107203,1.09011555582e-05,-5.95735812579e-06,0.707138935033,0.707074625768
121877480980,1874,121827480979,map,193.745620728,-118.224029541,0.256373435259,0.000458523698438,0.000427103886044,0.708267218207,0.705944158523
121877480980,1875,121877480980,map,193.733062744,-117.884780884,0.256301730871,0.000816861163093,0.000751010618484,0.710814849728,0.703378289491
121927480980,1876,121927480980,map,193.709701538,-117.546768188,0.256306231022,0.00144384168347,0.00141740439925,0.715211617263,0.698905035623
121977480981,1877,121977480981,map,193.67414856,-117.209739685,0.256324917078,0.00195102149096,0.00199370424894,0.721775133023,0.692122009481
122027480982,1878,122027480982,map,193.63092041,-116.873313904,0.256343305111,0.00208879091871,0.00220376038009,0.729135766953,0.684362340973
122077480982,1879,122077480982,map,193.581466675,-116.535514832,0.256323307753,0.00205793165557,0.00219228466567,0.736496689664,0.676434464615
122127480983,1880,122127480983,map,193.46661377,-115.857261658,0.256193310022,0.00186316836561,0.00195197732579,0.749956060732,0.661482142887
122227480985,1881,122227480985,map,193.401947021,-115.51675415,0.256096720695,0.00175263259837,0.00179032534172,0.755865234954,0.654722437069
122277480985,1882,122277480985,map,193.332809448,-115.174705505,0.256020754576,0.00165426433149,0.00163417074936,0.761214487008,0.648496027485
122327480986,1883,122327480986,map,193.259643555,-114.832176208,0.25598347187,0.00155014535326,0.0014987138004,0.766057051139,0.642768967286
122377480987,1884,122377480987,map,193.174804688,-114.491737366,0.255997687578,0.00196735063704,0.00204500156802,0.77180559039,0.635852245528
122427480988,1885,122427480988,map,193.075195312,-114.157272339,0.256084442139,0.00242467829502,0.00276777844329,0.77945244053,0.626450599241
122477480988,1886,122477480988,map,192.965270996,-113.82522583,0.256135314703,0.00254642452387,0.00306662828824,0.787840097582,0.615866943548
122627480991,1887,122527480989,map,192.847366333,-113.495025635,0.256171196699,0.00246633875348,0.00309894338805,0.79618735498,0.605037196784
122627480991,1888,122627480991,map,192.590072632,-112.836158752,0.256164193153,0.00215802227754,0.00283346838931,0.811308329819,0.584607653357
122677480991,1889,122677480991,map,192.451934814,-112.507652283,0.25614836812,0.00199364751634,0.00264742082309,0.817879135938,0.575380513686
122727480992,1890,122727480992,map,192.308822632,-112.181381226,0.256168276072,0.00181448864483,0.00247510047063,0.823803984082,0.566866454573
122777480993,1891,122777480993,map,192.161102295,-111.85710907,0.256197780371,0.00163735182058,0.00230656357388,0.8291009626,0.559091756924
122827480994,1892,122827480994,map,192.002456665,-111.540077209,0.256288021803,0.00190276918402,0.00288320439154,0.835051242552,0.550161329897
122877480994,1893,122877480994,map,191.827651978,-111.237861633,0.256485372782,0.00240394330977,0.00403909869569,0.843107778728,0.537724074398
122927480995,1894,122927480995,map,191.638458252,-110.952163696,0.256736129522,0.00267487450501,0.00502712623895,0.853070742291,0.52176420124
122977480996,1895,122977480996,map,191.228485107,-110.41053772,0.257011562586,0.00237526511647,0.00543881824258,0.873692838946,0.486441775083
123077480997,1896,123077480997,map,191.010620117,-110.149909973,0.257043093443,0.00209862706509,0.00522878558042,0.883034343446,0.469274550621
123127480998,1897,123127480998,map,190.785110474,-109.89516449,0.257035046816,0.00184609297679,0.0049493796805,0.891448723365,0.45309079575
123177480999,1898,123177480999,map,190.552947998,-109.645545959,0.256997078657,0.0016175855302,0.00461768557363,0.89896785366,0.437987281189
123227481000,1899,123227481000,map,190.321777344,-109.407440186,0.257168203592,0.00119943543247,0.00422887620937,0.905439876128,0.424451774266
123277481000,1900,123277481000,map,190.093429565,-109.18157959,0.257447898388,0.00074224570752,0.0039090393157,0.910999981933,0.412387198396
123327481001,1901,123327481001,map,189.868225098,-108.96736145,0.257744282484,0.00031373732709,0.00364296586411,0.915765400353,0.401696853217
123377481002,1902,123377481002,map,189.645172119,-108.761932373,0.257955849171,-2.70638184898e-05,0.00337610633569,0.91999127307,0.391924302192
123427481003,1903,123427481003,map,189.424621582,-108.56552124,0.258114129305,-0.000302565263756,0.0031217298125,0.923564423192,0.383430462366
123477481003,1904,123477481003,map,189.206634521,-108.375679016,0.258187294006,-0.00050138532435,0.00285566703396,0.926877504038,0.37535274914
123527481004,1905,123527481004,map,188.988220215,-108.200172424,0.258290946484,-0.000434871235513,0.00330230323066,0.930334334218,0.366697330581
123577481005,1906,123577481005,map,188.544647217,-107.90789032,0.258566737175,-0.000140711093006,0.00499411711692,0.940755346185,0.33904928494
123727481007,1907,123677481006,map,188.320236206,-107.782691956,0.258556813002,-0.000197343337197,0.00507085939813,0.946647747837,0.322230180082
123727481007,1908,123727481007,map,188.093414307,-107.665977478,0.258444309235,-0.000269178323347,0.00483396625333,0.952080481366,0.305809282586
123777481008,1909,123777481008,map,187.861160278,-107.553367615,0.258176416159,-0.000237523538247,0.00446846737921,0.957113006274,0.289680288598
123827481009,1910,123827481009,map,187.622497559,-107.444999695,0.25783059001,-0.000116910305563,0.00412438959529,0.961641982456,0.274276636484
123877481009,1911,123877481009,map,187.373840332,-107.338119507,0.257369965315,0.000113883069127,0.00378652731712,0.965765841308,0.259387719456
123927481010,1912,123927481010,map,187.116409302,-107.233581543,0.256917178631,0.00035863789931,0.00348596939224,0.969505220637,0.245045600969
123977481011,1913,123977481011,map,186.84815979,-107.130302429,0.256452143192,0.000628603453694,0.00320872201987,0.972866430267,0.231344370627
124027481012,1914,124027481012,map,186.570877075,-107.02923584,0.25606033206,0.000856312381771,0.00297788392299,0.975895415974,0.218216718006
124077481012,1915,124077481012,map,186.283569336,-106.929862976,0.255711555481,0.00105860940882,0.00276205407765,0.978591385308,0.205791523159
124127481013,1916,124127481013,map,185.989181519,-106.8332901,0.255478560925,0.0011775100608,0.00257581576096,0.980988084045,0.194047307645
124177481014,1917,124177481014,map,185.687301636,-106.739196777,0.255307793617,0.00125345554821,0.00240217107815,0.983092016335,0.183092178536
124227481015,1918,124227481015,map,185.38053894,-106.648384094,0.255239665508,0.00125482901139,0.00225174855406,0.984942015511,0.17286578931
124277481015,1919,124277481015,map,185.068466187,-106.560455322,0.255211740732,0.00122953992901,0.00210907419572,0.986551984661,0.163429561584
124327481016,1920,124327481016,map,184.753372192,-106.475906372,0.255255818367,0.00115239914431,0.00198252876257,0.987960011042,0.154692463091
124377481017,1921,124377481017,map,184.434738159,-106.394355774,0.255313515663,0.00106888912047,0.00186059100523,0.989180401361,0.146688545019
124427481018,1922,124427481018,map,184.11491394,-106.314041138,0.255410671234,0.000930969452518,0.00155941343719,0.9901724361,0.139840081212
124477481018,1923,124477481018,map,183.793106079,-106.235198975,0.255502194166,0.00081550666211,0.00133839620052,0.990965546482,0.134107528983
124527481019,1924,124527481019,map,183.47114563,-106.158462524,0.255624204874,0.000689258927605,0.00119524059873,0.991635158864,0.129065130951
124577481020,1925,124577481020,map,183.14831543,-106.083747864,0.255731701851,0.00058150818829,0.00108398737381,0.992186601336,0.124756703025
124627481020,1926,124627481020,map,182.825897217,-106.017364502,0.255888968706,0.000514249662591,0.00161157267628,0.992880540946,0.119102350067
124677481021,1927,124677481021,map,182.503128052,-105.9585495,0.256025075912,0.000432953980286,0.00195508900113,0.99366811723,0.11233727333
124727481022,1928,124727481022,map,182.181884766,-105.904350281,0.256165832281,0.000310036209091,0.00201498950706,0.9944696414,0.105004647654
124777481023,1929,124777481023,map,181.860870361,-105.854194641,0.256269067526,0.000203596175783,0.00194066545899,0.995170871546,0.0981383145961
124827481023,1930,124827481023,map,181.541854858,-105.807304382,0.2563778162,9.0140126475e-05,0.00182178239971,0.995814448053,0.0913797462892
124877481024,1931,124877481024,map,181.223373413,-105.763816833,0.256449967623,8.29121906611e-06,0.00168685809568,0.996343174356,0.0854250159769
124927481025,1932,124927481025,map,180.907150269,-105.725616455,0.256539136171,-6.52845028698e-05,0.00179645227628,0.996875329602,0.0789705370846
124977481026,1933,124977481026,map,180.591659546,-105.691925049,0.256591379642,-0.000119326447645,0.00178933943366,0.997345231814,0.0727961029433
125027481026,1934,125027481026,map,180.278625488,-105.661201477,0.256651490927,-0.000186504814066,0.00169379819131,0.99777987801,0.0665763569357
125077481027,1935,125077481027,map,179.966415405,-105.633583069,0.256677538157,-0.000225472599643,0.00156362289033,0.998129415111,0.0611160775604
125127481028,1936,125127481028,map,179.656829834,-105.608184814,0.256717890501,-0.000274374783322,0.00142992541804,0.998442600792,0.0557696418823
125177481029,1937,125177481029,map,179.348220825,-105.585388184,0.25672724843,-0.000295708043507,0.0013001343956,0.998686230814,0.0512253315295
125227481029,1938,125227481029,map,179.042297363,-105.564323425,0.256754755974,-0.000329706669798,0.00118130892716,0.998905989159,0.0467474130385
125277481030,1939,125277481030,map,178.737411499,-105.546287537,0.25675547123,-0.000336493149448,0.00114263010966,0.999082327189,0.0428145380295
125327481031,1940,125327481031,map,178.43536377,-105.530006409,0.256776809692,-0.000361505340686,0.00107506116566,0.999249187517,0.0387269260845
125377481032,1941,125377481032,map,178.134338379,-105.515830994,0.256769478321,-0.000362775867431,0.000985271756292,0.999376396463,0.0352946996914
125427481032,1942,125427481032,map,177.836166382,-105.5027771,0.256785452366,-0.000382452666651,0.000893780852431,0.99949397241,0.0317939302655
125477481033,1943,125477481033,map,177.539077759,-105.491485596,0.256772875786,-0.000377894002349,0.000805855463556,0.999579932028,0.0289683841476
125527481034,1944,125527481034,map,177.244873047,-105.481002808,0.256785929203,-0.00039321153415,0.000726257670208,0.999660654301,0.0260364010139
125577481035,1945,125577481035,map,176.951721191,-105.472145081,0.256771147251,-0.000384679761525,0.000663436423833,0.99971847014,0.0237148125616
125627481035,1946,125627481035,map,176.661483765,-105.463905334,0.256782799959,-0.000397468189905,0.000601502867474,0.999774676925,0.0212149850981
125677481036,1947,125677481036,map,176.372238159,-105.456993103,0.256765812635,-0.000386425601917,0.000540096562036,0.99981313136,0.0193199723313
125727481037,1948,125727481037,map,176.085952759,-105.450424194,0.256776869297,-0.000397624955746,0.000484339170911,0.999851480196,0.0172228005584
125777481038,1949,125777481038,map,175.800628662,-105.445030212,0.256758868694,-0.000385026904723,0.000433025087896,0.999876455304,0.0157079079682
125827481038,1950,125827481038,map,175.518234253,-105.439819336,0.256769657135,-0.000395169392328,0.000388009630095,0.999902557333,0.0139488038359
125877481039,1951,125877481039,map,175.23677063,-105.435661316,0.25675085187,-0.000381246473341,0.000347316349919,0.999918646081,0.0127450084819
125927481040,1952,125927481040,map,174.958251953,-105.431503296,0.256761878729,-0.000391442205313,0.000307299971666,0.999936361942,0.011270510474
125977481041,1953,125977481041,map,174.680587769,-105.428253174,0.256740987301,-0.000375402646081,0.00027164231905,0.999946430257,0.0103403045952
126027481041,1954,126027481041,map,174.405166626,-105.424926758,0.256735920906,-0.000371999103552,0.000242926448066,0.999958358541,0.00911503081202
126077481042,1955,126077481042,map,174.12953186,-105.422409058,0.256685733795,-0.000331863557554,0.000216700928734,0.999964850953,0.00837494865028
126127481043,1956,126127481043,map,173.854980469,-105.419799805,0.256644099951,-0.000298975975064,0.000195666916183,0.999972873264,0.00735697379141
126177481044,1957,126177481044,map,173.577453613,-105.417793274,0.256519347429,-0.000198316269531,0.000176674028303,0.999977473292,0.00670688934947
126227481044,1958,126227481044,map,173.296463013,-105.415802002,0.256352990866,-6.40064554404e-05,0.000162680404813,0.999982437413,0.00592404449009
126277481045,1959,126277481045,map,173.009063721,-105.4140625,0.256118535995,0.000125269955427,0.000142163485274,0.999985913399,0.00530444150457
126327481046,1960,126327481046,map,172.718078613,-105.41242981,0.255932122469,0.000275672779664,0.000126364322146,0.999988893803,0.00470322297125
126377481047,1961,126377481047,map,172.422424316,-105.411010742,0.25576248765,0.000412524655366,0.000113232508252,0.999991140349,0.00418762766512
126427481047,1962,126427481047,map,172.124847412,-105.409721375,0.255676269531,0.000482225606324,0.000102802711573,0.99999310319,0.00368109526595
126477481048,1963,126477481048,map,171.824234009,-105.408653259,0.255614161491,0.000532159659074,9.28448505031e-05,0.999994472609,0.00328069147515
126527481049,1964,126527481049,map,171.523284912,-105.407592773,0.255629688501,0.000519337871335,8.53194520766e-05,0.999995936652,0.00280172952711
126577481050,1965,126577481050,map,171.221206665,-105.406913757,0.255664676428,0.000490862705435,7.63480913666e-05,0.999996591819,0.00256311818986
126627481050,1966,126627481050,map,170.920684814,-105.405982971,0.255765527487,0.000409325699493,6.63318780016e-05,0.999997719902,0.00209481330839
126677481051,1967,126677481051,map,170.620407104,-105.405532837,0.255860596895,0.000332288337738,5.5787908703e-05,0.99999796366,0.00198976063151
126727481052,1968,126727481052,map,170.322357178,-105.404754639,0.255988836288,0.000228426211444,5.099959754e-05,0.999998725607,0.00157924209884
126777481053,1969,126777481053,map,170.024871826,-105.40448761,0.256085723639,0.000150272699777,4.45553075857e-05,0.999998794781,0.00154462607183
126827481053,1970,126827481053,map,169.729827881,-105.403877258,0.256200015545,5.76268096794e-05,4.13944111402e-05,0.99999930578,0.00117618243397
126877481054,1971,126877481054,map,169.43548584,-105.403747559,0.256274878979,-2.87707213858e-06,3.65814181904e-05,0.999999290444,0.00119069914805
126927481055,1972,126927481055,map,169.143707275,-105.403259277,0.256365299225,-7.59074298758e-05,3.38837157928e-05,0.999999632502,0.000853279274855
126977481056,1973,126977481056,map,168.852645874,-105.403236389,0.256414145231,-0.000115310561881,2.68484589449e-05,0.999999577724,0.000911336676934
127027481056,1974,127027481056,map,168.563430786,-105.402816772,0.256461948156,-0.000154182322933,2.35337040118e-05,0.999999787047,0.000633702745028
127077481057,1975,127077481057,map,168.27230835,-105.402801514,0.256421744823,-0.000121460944546,1.98008463254e-05,0.999999765526,0.000673648937037
127127481058,1976,127127481058,map,167.978790283,-105.402557373,0.256328731775,-4.6362870332e-05,1.84721616987e-05,0.99999986522,0.000516787241371
127177481058,1977,127177481058,map,167.678771973,-105.40246582,0.256128489971,0.000115581059024,1.62181743218e-05,0.999999881965,0.000471643927665
127227481059,1978,127227481059,map,167.373077393,-105.402374268,0.255911529064,0.000291114896248,1.44037048222e-05,0.999999875969,0.000403864123901
127277481060,1979,127277481060,map,167.059524536,-105.402290344,0.255655616522,0.000497762792163,1.27932881341e-05,0.999999816382,0.000345405490148
127327481061,1980,127327481061,map,166.739395142,-105.40222168,0.255433410406,0.000677647901954,9.28152957128e-06,0.999999726505,0.000296137015305
127377481061,1981,127377481061,map,166.412689209,-105.402168274,0.255255073309,0.00082188999413,6.60335025205e-06,0.999999629784,0.000254725670181
127427481062,1982,127427481062,map,166.086135864,-105.402114868,0.255250960588,0.000824750480269,5.10446954482e-06,0.999999636701,0.000215312142865
127477481063,1983,127477481063,map,165.760177612,-105.402069092,0.255344569683,0.000748992655048,4.27226557178e-06,0.999999703554,0.000178561599987
127527481064,1984,127527481064,map,165.434234619,-105.402030945,0.255466938019,0.000649989145582,3.91378206052e-06,0.999999778042,0.000146338064722
127577481064,1985,127577481064,map,165.108840942,-105.402000427,0.255604922771,0.000538230329626,3.66214357066e-06,0.999999848437,0.000115845485743
127627481065,1986,127627481065,map,164.783432007,-105.40196991,0.255726546049,0.000440061297452,2.59337561879e-06,0.9999998989,9.24105216064e-05
127677481066,1987,127677481066,map,164.458602905,-105.401947021,0.255841970444,0.000346839543965,1.90399524518e-06,0.999999937197,7.28367822253e-05
127727481067,1988,127727481067,map,164.133712769,-105.401931763,0.255931377411,0.000274479476973,1.61327503247e-06,0.999999960667,5.76569882416e-05
127777481067,1989,127777481067,map,163.809417725,-105.401908875,0.256013482809,0.000208079873848,1.47835841922e-06,0.999999977408,4.34092153188e-05
127827481068,1990,127827481068,map,163.485061646,-105.401901245,0.256071478128,0.000161409420526,1.43109267078e-06,0.99999998647,3.16913847363e-05
127877481069,1991,127877481069,map,163.161270142,-105.401924133,0.256125867367,0.000117421170532,1.29665776381e-06,0.999999992892,2.06393457648e-05
127927481070,1992,127927481070,map,162.829376221,-105.401931763,0.255967617035,0.000245273112948,5.35160291313e-07,0.999999969742,1.89083107717e-05
127977481070,1993,127977481070,map,162.483001709,-105.401931763,0.255593180656,0.000548243463509,-5.46356676594e-07,0.999999849401,2.5034002494e-05
128027481071,1994,128027481071,map,162.123916626,-105.401939392,0.255182862282,0.000880062340788,-1.89409469946e-06,0.999999612167,3.3956931366e-05
128077481072,1995,128077481072,map,161.751434326,-105.401947021,0.254775613546,0.00120943738657,-2.98149327768e-06,0.999999267701,4.3013563155e-05
128127481073,1996,128127481073,map,161.366867065,-105.40196228,0.254435658455,0.00148427398525,-4.06924891849e-06,0.999998897196,5.0206460521e-05
128177481073,1997,128177481073,map,160.969741821,-105.40196991,0.254148870707,0.00171619528967,-4.88943447189e-06,0.999998525767,5.58013695514e-05
128227481074,1998,128227481074,map,160.561004639,-105.40196991,0.253934234381,0.00188922719452,-5.70759338981e-06,0.99999821354,6.0863688037e-05
128327481076,1999,128327481076,map,159.708465576,-105.401977539,0.253656595945,0.00211292293372,-6.80081556186e-06,0.999997765464,6.76582082772e-05
128377481076,2000,128377481076,map,159.265213013,-105.401977539,0.253578931093,0.00217556727421,-6.80765792502e-06,0.999997631057,6.88570359192e-05
128427481077,2001,128427481077,map,158.810958862,-105.401977539,0.253532856703,0.002212522079,-6.54241393641e-06,0.999997550024,6.81908985091e-05
128477481078,2002,128477481078,map,158.345779419,-105.401977539,0.253508001566,0.0022324299066,-7.07521222775e-06,0.999997505811,6.7659580909e-05
128527481079,2003,128527481079,map,157.869873047,-105.401977539,0.253499895334,0.00223868830345,-7.34135471906e-06,0.999997491836,6.73939040548e-05
128577481079,2004,128577481079,map,157.383331299,-105.401977539,0.253503412008,0.00223564856626,-7.3399591779e-06,0.999997498672,6.686125177e-05
128627481080,2005,128627481080,map,156.88633728,-105.401977539,0.25351524353,0.00222605213768,-7.06914746281e-06,0.999997520197,6.51295409446e-05
128677481081,2006,128677481081,map,156.378982544,-105.401977539,0.253532171249,0.00221210489563,-7.33249508463e-06,0.999997551205,6.4197931411e-05
128727481082,2007,128727481082,map,155.86138916,-105.401977539,0.25355270505,0.0021955348214,-7.33113949048e-06,0.999997587732,6.40646568737e-05
128777481082,2008,128777481082,map,155.333679199,-105.401977539,0.253575056791,0.00217753423098,-7.06250901017e-06,0.999997627126,6.35313190886e-05
128827481083,2009,128827481083,map,154.795928955,-105.40196991,0.253598093987,0.00215869919667,-6.79269940842e-06,0.999997668032,6.24653544195e-05
128877481084,2010,128877481084,map,154.248214722,-105.40196991,0.2536213696,0.00213992381241,-7.05641941604e-06,0.999997708426,6.18000130876e-05
128927481085,2011,128927481085,map,153.690673828,-105.40196991,0.253644317389,0.00212132711375,-7.05413978379e-06,0.999997748081,6.12672557475e-05
128977481085,2012,128977481085,map,153.123336792,-105.40196991,0.253666222095,0.00210338620559,-6.7858848401e-06,0.999997786005,6.08671003961e-05
129027481086,2013,129027481086,map,152.546325684,-105.40196991,0.253687590361,0.00208616046529,-7.0508750872e-06,0.999997822096,6.07343857194e-05
129077481087,2014,129077481087,map,151.959686279,-105.40196991,0.253708094358,0.00206941158302,-7.05040843666e-06,0.99999785688,6.10005873957e-05
129127481088,2015,129127481088,map,151.363510132,-105.40196991,0.253727406263,0.00205355685464,-6.78230737318e-06,0.999997889591,6.06004593949e-05
129177481088,2016,129177481088,map,150.757843018,-105.40196991,0.253746032715,0.00203853659413,-6.2460509422e-06,0.999997920406,5.92676976849e-05
129227481089,2017,129227481089,map,150.142776489,-105.40196991,0.253763735294,0.00202423148404,-6.51017080812e-06,0.999997949503,5.86023619614e-05
129277481090,2018,129277481090,map,149.518341064,-105.40196991,0.253780514002,0.00201058203536,-6.50803467476e-06,0.999997977078,5.79364874116e-05
129327481091,2019,129327481091,map,148.884643555,-105.40196991,0.253796368837,0.00199758825095,-6.23857215126e-06,0.99999800319,5.67374537804e-05
129377481091,2020,129377481091,map,148.241714478,-105.40196991,0.253811717033,0.00198519051823,-6.50392027749e-06,0.999998027884,5.66047501378e-05
129427481092,2021,129427481092,map,147.592376709,-105.40196228,0.253894120455,0.0019183737951,-6.49579619305e-06,0.999998158422,5.43406476935e-05
129477481093,2022,129477481093,map,146.943527222,-105.401947021,0.254139870405,0.00171947353762,-5.67024755296e-06,0.999998520669,4.51501301238e-05
129527481094,2023,129527481094,map,146.295333862,-105.401939392,0.254449158907,0.00146937294819,-5.10832783775e-06,0.999998919917,3.28974389865e-05
129577481094,2024,129577481094,map,145.647720337,-105.401924133,0.254763096571,0.00121557674259,-4.01934224133e-06,0.999999260973,2.02448652451e-05
129677481096,2025,129677481096,map,144.354278564,-105.401939392,0.255304247141,-0.00077867494219,2.39435602425e-06,-0.999999696825,3.19392597587e-06
129727481096,2026,129727481096,map,143.708435059,-105.40196228,0.255515754223,-0.00060796734599,1.85741251669e-06,-0.999999815124,1.11841411302e-05
129777481097,2027,129777481097,map,143.063156128,-105.401977539,0.255689233541,-0.000468194456704,1.59022805699e-06,-0.999999890262,1.63776907818e-05
129827481098,2028,129827481098,map,142.418457031,-105.402008057,0.255828619003,-0.000355899346131,1.32470865861e-06,-0.999999936481,1.93074427704e-05
129877481099,2029,129877481099,map,141.774337769,-105.402015686,0.255938947201,-0.000266969211343,1.32628330086e-06,-0.999999964166,1.98401939219e-05
129927481099,2030,129927481099,map,141.12739563,-105.402015686,0.255938947201,-0.00026720763318,1.59369793008e-06,-0.999999964175,1.57122228998e-05
129977481100,2031,129977481100,map,140.47076416,-105.402038574,0.255745530128,-0.000423967796435,2.12889073158e-06,-0.999999910116,3.86067995837e-06
130027481101,2032,130027481101,map,139.804656982,-105.402061462,0.255476593971,0.000641405493443,-2.93741931535e-06,0.999999794218,1.23855755039e-05
130077481102,2033,130077481102,map,139.12928772,-105.402076721,0.255198061466,0.000866830101221,-4.02001855474e-06,0.999999623869,2.9165065739e-05
130127481102,2034,130127481102,map,138.444824219,-105.402084351,0.254942685366,0.00107330037478,-4.8419931813e-06,0.999999422988,4.50125415527e-05
130177481103,2035,130177481103,map,137.751403809,-105.402084351,0.254724651575,0.00124949146275,-5.66534142049e-06,0.999999217676,5.81970123155e-05
130227481104,2036,130227481104,map,137.049163818,-105.402069092,0.254546821117,0.00139289999485,-6.22096859621e-06,0.999999027534,6.87180213043e-05
130277481105,2037,130277481105,map,136.338165283,-105.402046204,0.254407197237,0.00150549300776,-6.50604742441e-06,0.999998863832,7.60427853746e-05
130327481105,2038,130327481105,map,135.618545532,-105.402030945,0.25430098176,0.0015910254711,-6.51932883471e-06,0.999998731073,8.03043743313e-05
130377481106,2039,130377481106,map,134.890380859,-105.402000427,0.254222720861,0.00165402750186,-6.25873188164e-06,0.999998628819,8.07038019278e-05
130427481107,2040,130427481107,map,134.153762817,-105.40196991,0.254166632891,0.00169890977448,-6.25986417362e-06,0.999998553693,7.92393342903e-05
130527481108,2041,130527481108,map,132.655395508,-105.401939392,0.254103392363,0.001749394942,-5.18159515096e-06,0.999998467378,6.95172499819e-05
130577481109,2042,130577481109,map,131.893783569,-105.401931763,0.25408872962,0.00176101793675,-5.17184970923e-06,0.999998447376,6.35252042263e-05
130627481110,2043,130627481110,map,131.123977661,-105.401924133,0.254081577063,0.00176656119792,-4.89553788231e-06,0.999998437955,5.76658159486e-05
130677481111,2044,130677481111,map,130.34602356,-105.401908875,0.25407987833,0.00176775327147,-4.88666125251e-06,0.999998436127,5.26058233834e-05
130727481111,2045,130727481111,map,129.5599823,-105.401908875,0.25408193469,0.00176596513775,-5.14653379256e-06,0.999998439468,4.90110234219e-05
130777481112,2046,130777481112,map,128.765884399,-105.401908875,0.254086613655,0.00176191205596,-4.60830671648e-06,0.999998446766,4.59474343143e-05
130827481113,2047,130827481113,map,127.963813782,-105.401901245,0.254093021154,0.00175654764129,-4.86993194754e-06,0.999998456315,4.3417879128e-05
130877481114,2048,130877481114,map,127.153793335,-105.401901245,0.254100650549,0.00175034878447,-4.86779984955e-06,0.99999846723,4.23525870839e-05
130927481114,2049,130927481114,map,126.335884094,-105.401924133,0.25410887599,0.00174349429465,-4.5984075222e-06,0.999998479272,4.0754196187e-05
130977481115,2050,130977481115,map,125.510131836,-105.401947021,0.254117578268,0.00173646097962,-4.86258691297e-06,0.999998491551,3.96893644617e-05
131027481116,2051,131027481116,map,124.676551819,-105.401977539,0.254126280546,0.00172930842821,-4.86161233716e-06,0.999998503961,3.92898571005e-05
131077481117,2052,131077481117,map,123.835212708,-105.401977539,0.254134982824,0.00172215584811,-5.39579588766e-06,0.99999851626,4.03560034268e-05
131127481117,2053,131127481117,map,122.129364014,-105.401977539,0.254151672125,0.0017083870807,-6.2026066449e-06,0.999998539661,4.5284136782e-05
131277481120,2054,131227481119,map,121.264938354,-105.401992798,0.254159837961,0.00170171135111,-6.20819497538e-06,0.999998550881,4.87462008055e-05
131327481120,2055,131277481120,map,120.392875671,-105.401992798,0.254167854786,0.0016953336728,-6.21194767292e-06,0.999998561594,5.11430038022e-05
131327481120,2056,131327481120,map,119.513252258,-105.401992798,0.254175573587,0.00168901555299,-6.21522317301e-06,0.999998572174,5.32734914788e-05
131377481121,2057,131377481121,map,118.626060486,-105.402000427,0.254182875156,0.00168299548284,-6.21714312338e-06,0.999998582252,5.46050338012e-05
131427481122,2058,131427481122,map,117.731361389,-105.402000427,0.254189968109,0.00167715421512,-6.21861089374e-06,0.999998592007,5.56702614941e-05
131477481123,2059,131477481123,map,116.833358765,-105.401992798,0.254294365644,0.00159251577145,-5.94313383674e-06,0.999998730531,5.28730110583e-05
131527481123,2060,131527481123,map,115.936225891,-105.401977539,0.254518806934,0.00141078156304,-5.65500072134e-06,0.999999003854,4.42163200777e-05
131577481124,2061,131577481124,map,115.040023804,-105.40196991,0.254785835743,0.00119495344592,-4.56651306357e-06,0.999999285496,3.27622680159e-05
131627481125,2062,131627481125,map,114.144737244,-105.401947021,0.25505065918,0.000981032568899,-3.74749555338e-06,0.999999518591,1.94447243076e-05
131677481126,2063,131677481126,map,112.356803894,-105.401931763,0.255500167608,-0.000618576934804,1.59418976581e-06,-0.999999808662,5.99112288428e-06
131777481127,2064,131777481127,map,111.464157104,-105.401947021,0.255674213171,-0.00047832723025,7.91432447162e-07,-0.999999885478,1.57122664746e-05
131827481128,2065,131827481128,map,110.572402954,-105.40196991,0.25581625104,-0.000363945934024,5.24393491105e-07,-0.999999933515,2.26366739154e-05
131877481129,2066,131877481129,map,109.681533813,-105.402000427,0.25593033433,-0.000272274009167,2.58956157961e-07,-0.999999962568,2.70310115482e-05
131927481129,2067,131927481129,map,108.791542053,-105.402030945,0.25602042675,-0.000199794766584,5.27098516845e-07,-0.999999979657,2.76967683634e-05
131977481130,2068,131977481130,map,107.896759033,-105.402061462,0.25595703721,-0.000251471990888,7.93657399125e-07,-0.999999968159,2.10387710318e-05
132077481132,2070,132077481132,map,106.083740234,-105.402114868,0.255527198315,0.000599801411658,-2.93690392458e-06,0.999999820038,1.23854539453e-05
132127481132,2071,132127481132,map,104.240913391,-105.402130127,0.255088180304,0.000954806353113,-5.37552198398e-06,0.99999954283,5.15372291866e-05
132227481134,2072,132227481134,map,103.308799744,-105.402114868,0.254916608334,0.00109344649545,-6.19923176523e-06,0.99999939988,6.76509488541e-05
132277481134,2073,132277481134,map,102.3697052,-105.402107239,0.254779875278,0.00120365529538,-6.48694646285e-06,0.999999272446,7.92366782227e-05
132327481135,2074,132327481135,map,101.42376709,-105.402084351,0.254674911499,0.00128799570401,-6.76903376509e-06,0.999999166787,8.62949229917e-05
132377481136,2075,132377481136,map,100.471084595,-105.402061462,0.254597306252,0.00135040179675,-6.51025944357e-06,0.999999084323,8.78928669383e-05
132427481137,2076,132427481137,map,99.51171875,-105.402030945,0.254541605711,0.00139498607111,-6.24526141606e-06,0.999999023286,8.60285640751e-05
132477481137,2077,132477481137,map,98.545753479,-105.401992798,0.254503309727,0.00142550362909,-5.70747208565e-06,0.999998980707,8.0568513363e-05
132527481138,2078,132527481138,map,97.5732574463,-105.401947021,0.254478365183,0.00144517324355,-5.16507059856e-06,0.99999895308,7.27115343582e-05
132577481139,2079,132577481139,map,96.5943069458,-105.401908875,0.254463404417,0.0014569154081,-4.61990503581e-06,0.99999893667,6.35229205441e-05
132627481140,2080,132627481140,map,95.6089248657,-105.401893616,0.254455715418,0.00146281642953,-4.07420946134e-06,0.999998928599,5.43342716573e-05
132677481140,2081,132677481140,map,94.6171722412,-105.401885986,0.254453271627,0.00146460463053,-3.52802302477e-06,0.999998926447,4.50124447558e-05
132727481141,2082,132727481141,map,92.614730835,-105.401863098,0.25445792079,0.00146043233108,-2.97342315651e-06,0.999998933111,3.00979665228e-05
132827481143,2083,132827481143,map,91.6041183472,-105.401863098,0.254462897778,0.00145625997814,-2.96592918195e-06,0.999998939335,2.50379537795e-05
132877481143,2084,132877481143,map,90.5872802734,-105.401893616,0.254468679428,0.0014513724152,-2.96155534029e-06,0.99999894651,2.21084655269e-05
132927481144,2085,132927481144,map,89.5642776489,-105.401924133,0.254474937916,0.00144612723926,-3.22621449057e-06,0.999998954131,2.1043572134e-05
132977481145,2086,132977481145,map,88.5351028442,-105.401947021,0.254481434822,0.00144076281478,-3.4929935415e-06,0.999998961865,2.14434126013e-05
133027481146,2087,133027481146,map,87.4998016357,-105.401977539,0.254487842321,0.001435457931,-4.02971665037e-06,0.999998969425,2.43736331501e-05
133077481146,2088,133077481146,map,86.458404541,-105.401992798,0.254494011402,0.00143045122222,-4.30143305004e-06,0.999998976496,2.82355739034e-05
133127481147,2089,133127481147,map,85.4109268188,-105.402000427,0.254500031471,0.00142550392583,-4.84056997457e-06,0.999998983416,3.28968394634e-05
133227481149,2090,133177481148,map,84.3573989868,-105.402008057,0.254505604506,0.00142085480524,-5.11448905066e-06,0.999998989837,3.83566705102e-05
133227481149,2091,133227481149,map,82.2322845459,-105.402015686,0.254515916109,0.00141233121106,-5.3927016866e-06,0.99999900154,4.70122688725e-05
133327481150,2092,133327481150,map,81.1607437134,-105.402015686,0.254520863295,0.00140839730163,-5.66296004118e-06,0.999999006945,4.99420975513e-05
133377481151,2093,133377481151,map,80.0832366943,-105.402015686,0.254525303841,0.00140482101634,-5.66446404364e-06,0.999999011915,5.11404991067e-05
133427481152,2094,133427481152,map,78.9998016357,-105.402015686,0.254529565573,0.00140118517558,-5.66558523167e-06,0.999999016968,5.20725845002e-05
133477481152,2095,133477481152,map,77.910446167,-105.402000427,0.254533678293,0.00139784725342,-5.66578272296e-06,0.999999021625,5.23388819226e-05
133527481153,2096,133527481153,map,76.8151855469,-105.40196991,0.254537582397,0.00139468826446,-5.66543273611e-06,0.999999026043,5.22057065631e-05
133577481154,2097,133577481154,map,75.7140426636,-105.401939392,0.254541397095,0.00139164839169,-5.66453335568e-06,0.999999030306,5.16730580823e-05
133627481155,2098,133627481155,map,74.6070556641,-105.401931763,0.254544913769,0.00138872779624,-5.1293457996e-06,0.999999034457,4.99412492385e-05
133677481155,2099,133677481155,map,72.3756256104,-105.401924133,0.25455313921,0.00138187334859,-4.32214419205e-06,0.999999044226,4.42143201137e-05
133777481157,2100,133777481157,map,71.2519836426,-105.401924133,0.254574507475,0.00136470730509,-4.31629592778e-06,0.999999067958,4.04858259579e-05
133877481158,2101,133877481158,map,68.994140625,-105.401901245,0.254712820053,0.00125247188144,-3.49746209755e-06,0.999999215252,2.82338216028e-05
133927481159,2102,133927481159,map,67.8619003296,-105.401901245,0.254827350378,0.00115978682165,-3.22019213661e-06,0.99999932722,2.10426648997e-05
133977481160,2103,133977481160,map,66.7286529541,-105.401901245,0.254966259003,0.00104761094989,-2.67669041103e-06,0.999999451168,1.29191141549e-05
134027481161,2104,134027481161,map,65.5961761475,-105.401908875,0.255143731833,0.000904202289854,-2.40021525218e-06,0.999999591199,3.73059123473e-06
134077481161,2105,134077481161,map,63.3348808289,-105.401947021,0.255514532328,-0.000605046711537,1.32223416671e-06,-0.999999816839,1.54455258264e-05
134177481163,2106,134177481163,map,62.2060623169,-105.40196991,0.255674660206,-0.000476241081846,7.88421290849e-07,-0.999999886353,2.21038540472e-05
134227481164,2107,134227481164,map,61.0784568787,-105.402000427,0.255810707808,-0.000366806987948,7.89277299182e-07,-0.999999932378,2.63649999553e-05
134277481164,2108,134277481164,map,59.9520683289,-105.402030945,0.25592315197,-0.000276505937307,7.91216308331e-07,-0.999999961381,2.79629694592e-05
134327481165,2109,134327481165,map,58.826877594,-105.402061462,0.256014168262,-0.000203371054558,7.93667614446e-07,-0.999999978983,2.59656576055e-05
134377481166,2110,134377481166,map,57.7029037476,-105.402084351,0.256086736917,-0.00014537575219,1.06197338267e-06,-0.999999989176,2.26367141611e-05
134427481167,2111,134427481167,map,55.4585838318,-105.402130127,0.256188571453,-6.41346113034e-05,1.86357212932e-06,-0.999999997892,9.98673450653e-06
134577481169,2112,134527481168,map,54.3427200317,-105.402130127,0.256329029799,4.89950021553e-05,2.13084778749e-06,-0.999999998776,6.52484904798e-06
134577481169,2113,134577481169,map,53.2344474792,-105.402130127,0.256539463997,0.000218629807859,1.86584300847e-06,-0.999999976071,7.45725844646e-06
134627481169,2114,134627481169,map,52.1329879761,-105.402130127,0.256750941277,0.000389039469213,1.33593195842e-06,-0.999999924261,1.11857937691e-05
134677481170,2115,134677481170,map,51.0371780396,-105.402114868,0.256918698549,0.000524401609193,8.0718795644e-07,-0.999999862378,1.57130672402e-05
134727481171,2116,134727481171,map,49.9453010559,-105.402114868,0.257012397051,0.0005995034627,2.77731551537e-07,-0.999999820116,1.90417580285e-05
134777481172,2117,134777481172,map,47.7669677734,-105.402114868,0.256963044405,0.000558495477801,-1.43944734626e-07,-0.999999843901,1.67778266242e-05
134877481173,2118,134877481173,map,46.6786499023,-105.402130127,0.256863027811,0.000477254346238,5.33822186111e-09,-0.999999886052,1.11852753043e-05
134977481175,2119,134977481175,map,44.5223388672,-105.402130127,0.257021248341,0.000604510222787,6.84210944185e-09,-0.99999981722,1.13184325646e-05
135027481175,2120,135027481175,map,43.4678230286,-105.402107239,0.257423013449,0.00092893823216,-5.62528206643e-07,-0.999999568213,2.54326329329e-05
135077481176,2121,135077481176,map,42.4357070923,-105.402076721,0.257993459702,0.00138956258597,-1.68301003376e-06,-0.999999033256,5.09970484916e-05
135127481177,2122,135127481177,map,40.446056366,-105.401977539,0.259294480085,0.00243973549818,-5.19035913422e-06,-0.99999701528,0.000130747378512
135227481178,2123,135227481178,map,39.4908714294,-105.401931763,0.259915947914,0.00294094984683,-7.29812610578e-06,-0.999995659026,0.000180804827483
135277481179,2124,135277481179,map,38.5632400513,-105.401901245,0.260481894016,0.00339793692176,-9.01198007934e-06,-0.99999420006,0.000231926689214
135327481180,2125,135327481180,map,37.6637878418,-105.401863098,0.26098304987,0.00380217408831,-1.09267756402e-05,-0.999992731592,0.000283046335444
135377481181,2126,135377481181,map,35.9512405396,-105.401863098,0.2617867589,0.00445090784232,-1.36341207787e-05,-0.999990026471,0.000369042465305
135477481182,2127,135477481182,map,35.1379356384,-105.401885986,0.262077301741,0.00468556969399,-1.43800037103e-05,-0.999988942423,0.000400325693777
135577481184,2128,135527481183,map,34.3459243774,-105.401931763,0.262157440186,0.00475071653451,-1.40176548593e-05,-0.999988631823,0.000408315321281
135577481184,2129,135577481184,map,33.5651245117,-105.402038574,0.261934936047,0.0045721429977,-1.48323330828e-05,-0.999989474697,0.000381817499688
135627481184,2130,135627481184,map,32.7924613953,-105.402183533,0.261519342661,0.00423680908826,-1.30671748901e-05,-0.999990970969,0.000327504624516
135677481185,2131,135677481185,map,31.2663955688,-105.402450562,0.260469317436,0.00338750553128,-7.94032902928e-06,-0.999994245133,0.000185592233765
135777481187,2132,135777481187,map,30.5109272003,-105.402534485,0.259936749935,0.00295614779831,-3.30271632483e-06,-0.999995624518,0.000110110503989
135827481187,2133,135827481187,map,29.7594032288,-105.402572632,0.259434878826,0.0025497646665,-1.02513367956e-06,-0.999996748459,4.20749210097e-05
135877481188,2134,135877481188,map,29.0111923218,-105.402572632,0.258975982666,-0.00217819033614,-1.03393713811e-06,0.999997627637,1.43787154219e-05
135927481189,2135,135927481189,map,28.2657909393,-105.402534485,0.258565753698,-0.00184661050429,-1.76142686941e-06,0.999998293463,5.56565293801e-05
135977481190,2136,135977481190,map,26.7814178467,-105.402412415,0.257882773876,-0.00129485118066,-2.53660243559e-06,0.999999156901,9.77344815181e-05
136127481192,2137,136077481191,map,26.040763855,-105.402328491,0.257586807013,-0.00105589624989,-2.02254567675e-06,0.99999943731,0.000102263079055
136127481192,2138,136127481192,map,25.3008441925,-105.402244568,0.257330089808,-0.000849008563546,-1.2479209672e-06,0.999999634737,9.8535794137e-05
136177481193,2139,136177481193,map,24.5629367828,-105.402153015,0.257147520781,-0.000702023400098,-2.05740942878e-07,0.999999749859,8.62862109888e-05
136227481193,2140,136227481193,map,23.8338489532,-105.402069092,0.257170021534,-0.000720918051208,7.76699807079e-07,0.999999738061,6.44490080293e-05
136327481195,2141,136327481195,map,22.4325313568,-105.401924133,0.258018881083,0.00140774199837,-3.96187578735e-06,-0.999999009,1.57070264189e-05
136377481196,2142,136377481196,map,21.7708244324,-105.401855469,0.258722603321,0.0019765486647,-5.91177789985e-06,-0.999998044091,7.09611421408e-05
136477481197,2143,136427481196,map,21.1362609863,-105.401771545,0.259436517954,0.00255393802193,-7.84408932672e-06,-0.999996730205,0.000130074112661
136477481197,2144,136477481197,map,20.5288219452,-105.401725769,0.260089606047,0.003081795295,-9.5843685683e-06,-0.999995233417,0.000188652736868
136527481198,2145,136527481198,map,19.9472160339,-105.401695251,0.260616779327,0.00350844396824,-1.09385424951e-05,-0.999993816137,0.000241639026712
136577481199,2146,136577481199,map,18.8574047089,-105.401657104,0.261295765638,0.00405865154246,-1.16997301289e-05,-0.999991714043,0.000314730372079
136677481200,2147,136677481200,map,18.3510932922,-105.401657104,0.261543542147,0.00425916037589,-1.24135912823e-05,-0.999990872797,0.000337227295811
136727481201,2148,136727481201,map,17.8713989258,-105.401664734,0.26175814867,0.00443308559286,-1.27013495385e-05,-0.999990111371,0.000353201590715
136777481202,2149,136777481202,map,17.4187870026,-105.401687622,0.26194781065,0.00458668502727,-1.24920846597e-05,-0.999989415509,0.000361988019123
136827481202,2150,136827481202,map,16.9935798645,-105.401702881,0.262115448713,0.00472258207683,-1.18365948348e-05,-0.999988782088,0.000364385494634
136977481205,2151,136977481205,map,15.4680099487,-105.401931763,0.261384487152,0.00390815035281,-1.07126843316e-05,-0.999992324419,0.000278118932217
137077481206,2152,137077481206,map,15.1019392014,-105.401992798,0.260776013136,0.00340318216092,-8.17211637765e-06,-0.999994181577,0.000234725758244
137127481207,2153,137127481207,map,14.7386894226,-105.402038574,0.260158807039,0.00290018034092,-7.19277947147e-06,-0.999995775393,0.000195186383339
137177481207,2154,137177481207,map,14.0160331726,-105.402114868,0.259012192488,0.00197631033009,-4.31141230148e-06,-0.999998038626,0.000130086135988
137277481209,2155,137277481209,map,13.6553144455,-105.402145386,0.258557975292,0.00159120508002,-2.73251320576e-06,-0.999998728732,0.000102926437033
137377481210,2156,137377481210,map,12.9338531494,-105.402168274,0.257893979549,0.000998675631242,-1.73194039658e-07,-0.999999499767,5.57929683751e-05
137427481211,2157,137427481211,map,12.5725488663,-105.402175903,0.257610917091,0.000763535369599,-1.72879242534e-07,-0.999999707766,3.84825120903e-05
137527481213,2158,137527481213,map,11.8470077515,-105.402206421,0.257146060467,0.000388026194929,5.37850696354e-07,-0.999999924627,1.34491691673e-05
137577481213,2159,137577481213,map,11.4825487137,-105.402206421,0.256961524487,0.000241517998814,1.06632562368e-06,-0.999999970824,4.39447295097e-06
137627481214,2160,137627481214,map,11.1174201965,-105.402183533,0.256821423769,-0.000131309028875,-1.33102089123e-06,0.999999991369,4.26088285877e-06
137727481216,2161,137727481216,map,10.0141677856,-105.402183533,0.256522893906,0.000102698776831,-1.33333083289e-06,0.99999999458,1.70443676374e-05
137827481217,2162,137827481217,map,9.27266979218,-105.402183533,0.256413578987,0.000187814181879,-1.60202310648e-06,0.99999998212,2.19713787115e-05
137927481219,2163,137927481219,map,8.90022087097,-105.402183533,0.256381452084,0.000212669319954,-1.60285250609e-06,0.999999977113,2.33029988328e-05
137977481219,2164,137977481219,map,8.52615261078,-105.402183533,0.256346672773,0.000239968246648,-1.6037442635e-06,0.999999970909,2.43683067148e-05
138027481220,2165,138027481220,map,8.15117454529,-105.402183533,0.256329327822,0.000253319681016,-1.60420402326e-06,0.999999967603,2.49009601695e-05
138077481221,2166,138077481221,map,7.4013543129,-105.402183533,0.256375730038,0.00021475548921,-1.60298665398e-06,0.999999976658,2.37024763101e-05
138227481223,2167,138227481223,map,6.6528429985,-105.402183533,0.256458491087,0.000147223429354,-1.33481518853e-06,0.99999998892,2.19712747931e-05
138327481225,2168,138327481225,map,5.53258371353,-105.402175903,0.256420522928,2.03847688597e-05,-1.06563327639e-06,0.999999999628,1.81095171231e-05
138427481226,2169,138427481226,map,5.16028022766,-105.408798218,0.256414800882,2.48294449987e-05,-0.000654154454289,-0.999998354486,0.00169188955159
138527481228,2170,138527481228,map,4.42076587677,-105.447654724,0.256509929895,0.000150323345314,-0.00217793818418,-0.999922180088,0.0122828235981
138577481228,2171,138577481228,map,4.06444883347,-105.484207153,0.256801724434,0.000419674082836,-0.0028603750439,-0.999755401921,0.0219266608933
138627481229,2172,138627481229,map,3.39277887344,-105.576416016,0.257626980543,0.00114956671763,-0.00297505601643,-0.999057779163,0.043282576542
138777481231,2173,138777481231,map,2.76320886612,-105.685348511,0.258065521717,0.00159332679313,-0.00252217967771,-0.998026894283,0.0627169690608
139027481235,2174,139027481235,map,1.32130861282,-106.024871826,0.258139371872,0.00182905359142,-0.00295367825335,-0.994445273398,0.105197569194
139077481236,2175,139077481236,map,1.0545617342,-106.11391449,0.258063077927,0.00180785631822,-0.0030059466395,-0.993171778482,0.116608380344
139177481237,2176,139177481237,map,0.538960695267,-106.300956726,0.257921248674,0.00169504179715,-0.00251735564623,-0.990380578989,0.138336902215
139227481238,2177,139227481238,map,0.288923591375,-106.39793396,0.257849007845,0.00162356502603,-0.00225119792272,-0.988936712393,0.148312086579
139277481239,2178,139277481239,map,0.0406370162964,-106.498672485,0.257698446512,0.0014877580353,-0.00203567535938,-0.9875752938,0.15712632395
139377481240,2179,139327481240,map,-0.206379696727,-106.602142334,0.257508248091,0.00132260874859,-0.00186535184895,-0.986172352427,0.165707158797
139377481240,2180,139377481240,map,-0.456609636545,-106.710639954,0.257204860449,0.00106901380399,-0.00174975587896,-0.984827589076,0.173523529695
139427481241,2181,139427481241,map,-0.971074283123,-106.943099976,0.256452202797,0.00045329062967,-0.00162335323886,-0.982140252893,0.188142719495
139577481243,2182,139577481243,map,-1.48246634007,-107.220573425,0.256046742201,0.000563127784599,-0.00359965480482,-0.977730293908,0.209833738343
139627481244,2183,139627481244,map,-1.72400462627,-107.381278992,0.256062984467,0.000837585105301,-0.00447233352811,-0.974012567344,0.226448261949
139677481245,2184,139677481245,map,-1.96180582047,-107.552703857,0.256049484015,0.000964237846875,-0.00466981858023,-0.969700818786,0.244249022692
139827481247,2185,139827481247,map,-2.65920710564,-108.114448547,0.256047546864,0.00100695660346,-0.00394204510562,-0.955723344378,0.294238568732
139877481248,2186,139877481248,map,-2.88703370094,-108.315460205,0.256050288677,0.000976414648315,-0.00363776059411,-0.951167199646,0.308653157493
139977481249,2187,139927481248,map,-3.11107087135,-108.520965576,0.256097495556,0.000970967993248,-0.0033349186752,-0.946703934433,0.322086317727
139977481249,2188,139977481249,map,-3.3319401741,-108.731422424,0.256141364574,0.000953312269582,-0.00304414277371,-0.942516273425,0.334145026479
140027481250,2189,140027481250,map,-3.5483982563,-108.944320679,0.256226807833,0.000964593718898,-0.00276216603132,-0.93843834194,0.345434390838
140077481251,2190,140077481251,map,-3.9699010849,-109.378700256,0.256381571293,0.000968094316779,-0.00225836387285,-0.931076918784,0.364814656906
140177481252,2191,140177481252,map,-4.17513895035,-109.599311829,0.256436765194,0.000952429774858,-0.00203895709817,-0.927805933562,0.373056410184
140227481253,2192,140227481253,map,-4.37643098831,-109.820419312,0.256508708,0.000951574671312,-0.0018323607276,-0.92461770393,0.380890848588
140277481254,2193,140277481254,map,-4.57461118698,-110.043632507,0.256544947624,0.000924505684855,-0.00165134258866,-0.921780652923,0.387707165594
140327481254,2194,140327481254,map,-4.76242256165,-110.270561218,0.256647825241,0.00125333314099,-0.00217468648531,-0.918216278003,0.396071416168
140377481255,2195,140377481255,map,-4.93274402618,-110.505264282,0.256803959608,0.00186972965641,-0.00318995115092,-0.913070895776,0.407784094356
140427481256,2196,140427481256,map,-5.0829706192,-110.744422913,0.257036328316,0.00253368636118,-0.00403331603983,-0.905893371542,0.42347905756
140527481257,2197,140527481257,map,-5.34977293015,-111.235244751,0.25723746419,0.00290870249044,-0.00399886330147,-0.889189612302,0.457512165866
140627481259,2198,140577481258,map,-5.47263097763,-111.487937927,0.257187485695,0.00281438006556,-0.00371404644853,-0.880794713734,0.473475403143
140627481259,2199,140627481259,map,-5.59018564224,-111.745925903,0.257071554661,0.00265599116916,-0.00345453110617,-0.872418673679,0.488739879427
140677481260,2200,140677481260,map,-5.70381689072,-112.011703491,0.256867706776,0.00242489602202,-0.00324218374503,-0.86434557032,0.502882037055
140727481260,2201,140727481260,map,-5.81292915344,-112.282562256,0.256686002016,0.00220304578088,-0.0030366966817,-0.85646325208,0.516194365428
140777481261,2202,140777481261,map,-5.91799068451,-112.559364319,0.256504803896,0.00197625539244,-0.00284694386845,-0.849009144427,0.528366787378
140827481262,2203,140827481262,map,-6.01843500137,-112.839050293,0.25639668107,0.0017997230986,-0.0026459949772,-0.841815591478,0.539755749994
140877481263,2204,140877481263,map,-6.11452245712,-113.122543335,0.256309896708,0.00163637740316,-0.00245330617165,-0.835164538864,0.549992269565
140927481263,2205,140927481263,map,-6.20615577698,-113.407028198,0.256291598082,0.00152337258998,-0.00225039077916,-0.828764462157,0.559590994695
140977481264,2206,140977481264,map,-6.29351806641,-113.693862915,0.256277263165,0.00141450856006,-0.00206216160741,-0.822952438106,0.568104771385
141027481265,2207,141027481265,map,-6.37685632706,-113.980545044,0.256310164928,0.00134279068748,-0.00187033312821,-0.817351359946,0.576134926177
141077481266,2208,141077481266,map,-6.45626926422,-114.268676758,0.256328374147,0.00126329506648,-0.00169934209976,-0.812330201491,0.583193930068
